,NO_ENTIDADE,CO_ENTIDADE,QT_MAT_BAS_11_14,QT_MAT_BAS_15_17,QT_DESKTOP_ALUNO,QT_COMP_PORTATIL_ALUNO,QT_TABLET_ALUNO,IN_INTERNET_ALUNOS,IN_INTERNET_APRENDIZAGEM,IN_BANDA_LARGA,IN_MATERIAL_PED_MULTIMIDIA,IN_MATERIAL_PED_MUSICAL,IN_MATERIAL_PED_ARTISTICAS,QT_MAT_BAS_FEM,QT_MAT_BAS_MASC,QT_MAT_BAS_D,QT_MAT_BAS_N,QT_MAT_MED_INT,TP_DEPENDENCIA,TP_SITUACAO_FUNCIONAMENTO,DS_ENDERECO,NU_ENDERECO,DS_COMPLEMENTO,NO_BAIRRO,CO_CEP,Latitude,Longitude,SERIE_ANO,CIÊNCIAS,LÍNGUA PORTUGUESA,MATEMÁTICA,MAT_PT_TOTAL
0,GAVIAO PEIXOTO BRIGADEIRO,35000024,498.0,880.0,19.0,0.0,0.0,1.0,1.0,0.0,1.0,0.0,1.0,1091.0,1175.0,1656.0,610.0,0.0,2,1,MOGEIRO,710,RUA,VILA PERUS,5208230,-23.40471,-46.75938,EM-3ª série,"243,8",257.4,253.3,510.7
1,JOAO SOLIMEO,35000036,842.0,1100.0,12.0,0.0,0.0,0.0,1.0,1.0,1.0,1.0,1.0,1068.0,1048.0,1338.0,778.0,0.0,2,1,DO SABAO,1497,ESTRADA,JARDIM MARISTELA,2806000,-23.4694686,-46.6983995,EM-3ª série,"239,2",246.8,248.1,494.9
2,WALFREDO ARANTES CALDAS PROFESSOR,35000048,2.0,809.0,8.0,0.0,0.0,1.0,1.0,1.0,1.0,0.0,0.0,493.0,589.0,687.0,395.0,17.0,2,1,DEPUTADO CANTIDIO SAMPAIO,1701,,VILA SOUZA,2860001,-23.464,-46.67971,EM-3ª série,"258,7",256.4,251.1,507.5
3,SEBASTIAO DE OLIVEIRA GUSMAO PROFESSOR,35000059,5.0,1048.0,6.0,0.0,0.0,0.0,0.0,0.0,1.0,0.0,0.0,586.0,672.0,831.0,427.0,0.0,2,1,RUA FRANCISCO GIRON,SN,ESTRADA,MORRO DOCE,5267000,-23.4383462,-46.7924469,EM-3ª série,"266,3",253.7,253.8,507.5
4,RENATO DE ARRUDA PENTEADO PROFESSOR,35000097,2.0,759.0,11.0,11.0,0.0,1.0,1.0,0.0,0.0,0.0,0.0,559.0,517.0,804.0,272.0,0.0,2,1,FLORIANO DA COSTA BARROSO,10,RUA,JARDIM CAROMBE,2855220,-23.4581327,-46.7022058,EM-3ª série,"255,1",242.3,237.2,479.5
5,MARIANO DE OLIVEIRA PROFESSOR,35000139,319.0,999.0,15.0,0.0,0.0,0.0,0.0,1.0,0.0,0.0,0.0,843.0,909.0,1148.0,604.0,0.0,2,1,RUA ALMIRANTE ISAIAS DE NORONHA,13,RUA,VILA PEREIRA BARRETO,2919100,-23.49153,-46.71565,EM-3ª série,"285,7",280.1,276.6,556.7
6,SILVIO XAVIER ANTUNES PROFESSOR,35000140,154.0,221.0,8.0,29.0,0.0,0.0,0.0,1.0,1.0,0.0,0.0,204.0,222.0,426.0,0.0,15.0,2,1,JOSE DA SILVA MARTHA,150,RUA,PIQUERI,2913100,-23.5017077,-46.7131588,EM-3ª série,"276,8",277.1,267.1,544.2
7,PIO TELLES PEIXOTO PROFESSOR,35000164,214.0,301.0,10.0,0.0,0.0,1.0,1.0,1.0,1.0,1.0,1.0,336.0,360.0,519.0,177.0,0.0,2,1,ARTUR ORLANDO,985,RUA,VILA JAGUARA,5118000,-23.511597,-46.7487375,EM-3ª série,272,267.2,268.5,535.7
8,ZENAIDE VILALVA DE ARAUJO PROFESSORA,35000176,354.0,353.0,17.0,0.0,0.0,1.0,1.0,1.0,1.0,1.0,1.0,318.0,433.0,751.0,0.0,373.0,2,1,BELO JARDIM,674,RUA,JARDIM MUTINGA,5159200,-23.5006627,-46.7122546,EM-3ª série,286,277.9,272.6,550.5
9,ANTONIO CANDIDO CORREA GUIMARAES FILHO PROFESSOR,35000188,421.0,456.0,17.0,1.0,0.0,1.0,1.0,1.0,1.0,0.0,1.0,448.0,480.0,723.0,205.0,0.0,2,1,MUTINGA,5071,AVENIDA,JARDIM SANTO ELIAS,5110000,-23.5047429,-46.7581958,EM-3ª série,"274,5",271.1,264.7,535.8
10,AGENOR COUTO DE MAGALHAES DOUTOR,35000197,197.0,393.0,15.0,0.0,0.0,0.0,1.0,1.0,1.0,0.0,1.0,472.0,489.0,557.0,404.0,0.0,2,1,GUILHERME MANKEL,99,AVENIDA,VILA CLARICE,5176000,-23.47151,-46.74658,EM-3ª série,259,257.2,254.8,512.0
11,ANTONIO FRANCISCO REDONDO PROFESSOR,35000218,6.0,746.0,8.0,28.0,0.0,1.0,1.0,1.0,1.0,0.0,1.0,469.0,475.0,692.0,252.0,0.0,2,1,EVANDRO DANTON FERREIRA GANDRA,148,RUA,VILA MANGALOT,5131100,-23.4969,-46.7434,EM-3ª série,"267,8",260.8,257.8,518.6
12,CANDIDO GONCALVES GOMIDE PROFESSOR,35000224,406.0,835.0,10.0,0.0,0.0,1.0,1.0,1.0,0.0,0.0,0.0,817.0,804.0,1133.0,488.0,0.0,2,1,AVELINO ZANETTI,50,RUA,JARDIM CIDADE PIRITUBA,2945100,-23.48306172,-46.72585765,EM-3ª série,"279,7",269.2,258.0,527.2
13,CLODOMIRO CARNEIRO,35000255,197.0,179.0,0.0,0.0,0.0,0.0,0.0,1.0,1.0,0.0,1.0,186.0,201.0,387.0,0.0,170.0,2,1,MANOEL DE SOUZA AZEVEDO,364,RUA,SITIO MORRO GRANDE,2809040,-23.4713437,-46.7031927,EM-3ª série,"282,3",270.5,267.2,537.7
14,ERMANO MARCHETTI,35000267,355.0,811.0,14.0,0.0,0.0,1.0,1.0,1.0,1.0,1.0,0.0,658.0,635.0,1047.0,246.0,0.0,2,1,PEDRO MARIGLIANI,192,RUA,CHACARA INGLESA,5141010,-23.4933081,-46.7298324,EM-3ª série,"284,4",264.8,267.3,532.1
15,BENEDITO TOLOSA PROFESSOR,35000309,176.0,203.0,13.0,0.0,0.0,0.0,1.0,1.0,0.0,0.0,0.0,212.0,222.0,434.0,0.0,0.0,2,1,PRACA DIRCEU DE LIMA,617,PRACA,CASA VERDE,2515050,-23.5104708,-46.6577907,EM-3ª série,"266,9",259.2,255.0,514.2
16,PEDRO MONTEIRO DO AMARAL CAPITAO,35000322,280.0,353.0,16.0,0.0,0.0,1.0,1.0,1.0,1.0,1.0,1.0,340.0,334.0,674.0,0.0,41.0,2,1,RUA NURSIA,412,RUA,JARDIM SAO BENTO,2524020,-23.5026864,-46.6506415,EM-3ª série,"300,8",274.5,276.3,550.8
17,MANUEL DA NOBREGA PADRE,35000334,437.0,534.0,16.0,0.0,0.0,1.0,1.0,1.0,0.0,0.0,0.0,510.0,524.0,1034.0,0.0,0.0,2,1,RUA SANTA PRISCA,122,RUA,JARDIM LARANJEIRAS,2518010,-23.5089549,-46.6630694,EM-3ª série,279,276.7,274.1,550.8
18,ANTONIO JOSE LEITE PROF,35000371,311.0,1098.0,10.0,0.0,0.0,1.0,1.0,1.0,1.0,1.0,0.0,760.0,851.0,1361.0,250.0,0.0,2,1,DEZ DE MAIO,271,RUA,VILA AMELIA,2615100,-23.4703506,-46.655166,EM-3ª série,"274,1",269.3,265.2,534.5
19,ANTOINE DE SAINT EXUPERY,35000383,524.0,577.0,25.0,0.0,0.0,0.0,0.0,0.0,1.0,0.0,0.0,578.0,580.0,1158.0,0.0,29.0,2,1,RUA ANTONIO RIBEIRO DE MORAIS,184,RUA,VILA CARBONE,2751000,-23.4909827,-46.6810889,EM-3ª série,283,265.3,268.1,533.4000000000001
20,JOAQUIM LUIZ DE BRITO PROFESSOR,35000395,244.0,407.0,8.0,0.0,0.0,1.0,1.0,1.0,0.0,0.0,0.0,513.0,477.0,660.0,330.0,0.0,2,1,RUA SANTA LUCIA FILIPPINI,65,RUA,ITABERABA,2737100,-23.48751,-46.69238,EM-3ª série,"275,3",265.9,259.9,525.8
21,MARQUES DE TAMANDARE ALMIRANTE,35000401,419.0,686.0,16.0,0.0,0.0,0.0,1.0,1.0,1.0,0.0,0.0,593.0,625.0,914.0,304.0,0.0,2,1,JACARECOPAIBA,33,RUA,VILA MARINA,2965170,-23.484261,-46.7029114,EM-3ª série,"259,6",265.9,258.3,524.2
22,JOAQUIM SILVADO DOUTOR,35000413,267.0,194.0,16.0,0.0,0.0,1.0,1.0,1.0,1.0,1.0,1.0,219.0,258.0,477.0,0.0,184.0,2,1,RUA MONSENHOR MANOEL GOMES,306,RUA,VILA ZAT,2975120,-23.47972316,-46.70964749,EM-3ª série,287,275.6,271.1,546.7
23,AUGUSTO RIBEIRO DE CARVALHO PROFESSOR,35000450,447.0,672.0,26.0,0.0,0.0,1.0,1.0,0.0,1.0,0.0,0.0,677.0,738.0,1091.0,324.0,0.0,2,1,RUA PROFESSOR JOAO MACHADO,511,RUA,NOSSA SENHORA DO O,2927000,-23.4979561,-46.7037694,EM-3ª série,"281,4",275.3,271.9,547.2
24,AUGUSTO MEIRELLES REIS FILHO PROFESSOR,35000462,245.0,217.0,20.0,0.0,0.0,0.0,1.0,0.0,1.0,1.0,0.0,252.0,284.0,420.0,116.0,147.0,2,1,RUA PADRE JOAO GUALBERTO,311,RUA,IMIRIM,2537000,-23.4916621,-46.6513643,EM-3ª série,"254,8",240.6,249.5,490.1
25,LUIZ GONZAGA RIGHINI PROFESSOR,35000498,227.0,414.0,0.0,0.0,0.0,1.0,1.0,1.0,0.0,1.0,1.0,365.0,356.0,721.0,0.0,0.0,2,1,AVENIDA DEPUTADO EMILIO CARLOS,900,AVENIDA,LIMAO,2720100,-23.4978036,-46.6758798,EM-3ª série,"259,8",254.5,247.4,501.9
26,COLOMBO DE ALMEIDA PROFESSOR,35000528,282.0,537.0,13.0,0.0,0.0,1.0,1.0,1.0,1.0,1.0,1.0,432.0,454.0,886.0,0.0,0.0,2,1,RUA GRACIANO ALTIERI,114,RUA,CASA VERDE ALTA,2545060,-23.4939161,-46.6605849,EM-3ª série,"267,6",260.3,256.0,516.3
27,TARCISIO ALVARES LOBO,35000536,352.0,561.0,0.0,1.0,0.0,0.0,1.0,0.0,1.0,1.0,1.0,592.0,640.0,897.0,335.0,36.0,2,1,RUA ESTELA BORGES MORATO,500,RUA,VILA SIQUEIRA,2722000,-23.5026119,-46.6808481,EM-3ª série,"265,6",265.8,264.6,530.4000000000001
28,JACOMO STAVALE PROFESSOR,35000553,631.0,593.0,20.0,0.0,0.0,1.0,1.0,1.0,1.0,1.0,1.0,613.0,660.0,1273.0,0.0,568.0,2,1,MANUEL MADRUGA,205,RUA,MOINHO VELHO,2960020,-23.4960487,-46.6996174,EM-3ª série,"281,5",287.0,282.8,569.8
29,TITO PRATES DA FONSECA,35000607,542.0,854.0,11.0,0.0,0.0,1.0,1.0,1.0,1.0,1.0,0.0,908.0,934.0,1318.0,524.0,0.0,2,1,MENDONCA JUNIOR,611,RUA,VILA DOS ANDRADES,2610010,-23.4770123,-46.6642008,EM-3ª série,"278,9",270.4,268.3,538.7
30,ANTONIO EMILIO SOUZA PENNA PROFESSOR,35000620,378.0,530.0,25.0,0.0,0.0,1.0,1.0,1.0,1.0,0.0,0.0,487.0,567.0,761.0,293.0,0.0,2,1,CAROLINA MARIA DO CARMO,30,RUA,VILA ALBERTINA,2729080,-23.5035181,-46.6929174,EM-3ª série,264,262.0,256.1,518.1
31,ROMULO PERO PROFESSOR,35000668,305.0,232.0,17.0,0.0,0.0,0.0,1.0,1.0,0.0,1.0,0.0,284.0,265.0,549.0,0.0,231.0,2,1,RUA COPACABANA,243,RUA,SANTA TERESINHA,2461000,-23.4941932,-46.6384274,EM-3ª série,"271,1",267.1,274.2,541.3
32,PAULO EGYDIO DE OLIVEIRA CARVALHO SENADOR,35000673,654.0,854.0,0.0,0.0,0.0,1.0,1.0,1.0,1.0,0.0,1.0,831.0,787.0,1618.0,0.0,82.0,2,1,ARARITAGUABA,1264,RUA,VILA MARIA,2122011,-23.5150055,-46.5821843,EM-3ª série,"254,3",253.4,254.3,507.70000000000005
33,RITA BICUDO PEREIRA PROFA,35000693,362.0,255.0,14.0,2.0,0.0,0.0,1.0,1.0,1.0,0.0,1.0,536.0,575.0,982.0,129.0,0.0,2,1,PERI RONCHETTI,494,AVENIDA,JARDIM PERI,2633000,-23.4619192,-46.6508911,EM-3ª série,"255,8",263.4,254.9,518.3
34,NARBAL FONTES PROFESSORA,35000711,191.0,180.0,6.0,28.0,0.0,1.0,1.0,1.0,1.0,0.0,1.0,247.0,253.0,387.0,113.0,179.0,2,1,AVENIDA CONCEICAO,806,AVENIDA,CARANDIRU,2072000,-23.5004805,-46.6056775,EM-3ª série,"275,1",278.7,275.7,554.4
35,OCTAVIO MENDES DOUTOR,35000723,133.0,240.0,10.0,0.0,0.0,0.0,1.0,1.0,1.0,0.0,1.0,186.0,212.0,398.0,0.0,252.0,2,1,RUA VOLUNTARIOS DA PATRIA,3422,RUA,SANTANA,2402300,-23.490036,-46.6256296,EM-3ª série,"288,3",277.5,282.0,559.5
36,PAUL HUGON PROF,35000735,303.0,697.0,25.0,0.0,0.0,1.0,1.0,1.0,1.0,1.0,1.0,716.0,791.0,1028.0,479.0,0.0,2,1,JOSE DE ALMEIDA BOTELHO GENERAL,196,RUA,PARQUE MANDAQUI,2422090,-23.4710657,-46.6355175,EM-3ª série,"278,3",270.3,265.0,535.3
37,MARIA MONTESSORI,35000747,333.0,552.0,18.0,0.0,0.0,0.0,1.0,1.0,1.0,0.0,0.0,466.0,506.0,972.0,0.0,0.0,2,1,CONCEICAO,2288,AVENIDA,VILA PAIVA,2072002,-23.5003949,-46.5928103,EM-3ª série,"286,9",275.1,274.8,549.9000000000001
38,AFRANIO PEIXOTO,35000760,126.0,437.0,16.0,0.0,0.0,0.0,1.0,1.0,1.0,0.0,1.0,300.0,313.0,613.0,0.0,1.0,2,1,RUA MARIA CANDIDA,1936,RUA,VILA GUILHERME,2071013,-23.5085852,-46.596843,EM-3ª série,"273,7",266.2,265.8,532.0
39,HEROIS DA FEB,35000796,357.0,631.0,6.0,3.0,0.0,1.0,1.0,1.0,0.0,1.0,0.0,698.0,644.0,960.0,382.0,27.0,2,1,RUA SOLDADO BENEDITO ELISEU DOS SANTOS,SN,RUA,PARQUE NOVO MUNDO,2177020,-23.5124092,-46.5688134,EM-3ª série,"258,1",249.4,250.0,499.4
40,IMPERATRIZ LEOPOLDINA,35000802,203.0,193.0,24.0,0.0,0.0,1.0,1.0,1.0,1.0,0.0,0.0,179.0,245.0,424.0,0.0,195.0,2,1,TOGO,571,RUA,JARDIM JAPAO,2124050,-23.5054693,-46.5778447,EM-3ª série,"269,3",261.4,273.8,535.2
41,RAQUEL ASSIS BARREIROS PROFA,35000814,289.0,338.0,8.0,0.0,0.0,1.0,1.0,1.0,1.0,0.0,1.0,334.0,359.0,693.0,0.0,0.0,2,1,PENHA BRASIL GENERAL,1255,AVENIDA,VILA NOVA CACHOEIRINHA,2673000,-23.4641345,-46.6683506,EM-3ª série,"272,5",267.7,267.6,535.3
42,JOAO VIEIRA DE ALMEIDA,35000838,363.0,505.0,18.0,0.0,0.0,1.0,1.0,1.0,1.0,0.0,1.0,625.0,566.0,811.0,380.0,2.0,2,1,GUILHERME COTCHING,1272,AVENIDA,VILA MARIA,2113012,-23.5183454,-46.5893575,EM-3ª série,"266,4",256.8,257.1,513.9000000000001
43,JOAQUIM LEME DO PRADO PROFESSOR,35000848,526.0,737.0,27.0,26.0,0.0,1.0,1.0,0.0,0.0,1.0,1.0,748.0,660.0,1323.0,85.0,0.0,2,1,AVENIDA IMIRIM,2113,AVENIDA,IMIRIM,2465200,-23.4884378,-46.6525537,EM-3ª série,"271,5",270.9,261.0,531.9
44,CASTRO ALVES,35000875,341.0,334.0,21.0,67.0,0.0,1.0,1.0,1.0,0.0,0.0,0.0,328.0,392.0,720.0,0.0,0.0,2,1,FRANCISCO BRUNO,67,RUA,VILA MARIZA MAZZEI,2432070,-23.4854605,-46.6396929,EM-3ª série,272,257.2,261.1,518.3
45,CARLOS DE LAET PROF,35000905,248.0,155.0,0.0,0.0,0.0,1.0,1.0,1.0,1.0,0.0,0.0,206.0,210.0,416.0,0.0,145.0,2,1,ALBERTINA VIEIRA DA SILVA GORDO,147,RUA,VILA AURORA ZONA NORTE,2410000,-23.4771139,-46.6243508,EM-3ª série,"239,5",258.6,263.0,521.6
46,ANTONIO LISBOA PROFESSOR,35000917,228.0,333.0,14.0,0.0,0.0,0.0,1.0,1.0,0.0,0.0,0.0,316.0,375.0,606.0,85.0,0.0,2,1,RUA PROFESSOR FABIO FANUCCHI,425,RUA,BAIRRO JARDIM SAO PAULO,2045080,-23.4931599,-46.6157282,EM-3ª série,"290,8",277.6,264.9,542.5
47,ANTONIO VIEIRA PADRE,35000929,3.0,717.0,20.0,6.0,0.0,1.0,1.0,0.0,1.0,0.0,1.0,427.0,360.0,787.0,0.0,1.0,2,1,AVENIDA CRUZEIRO DO SUL,3301,AVENIDA,CANINDE,2031200,-23.501482,-46.6253123,EM-3ª série,"286,3",285.5,273.1,558.6
48,HOMEM DE MELLO BARAO,35000930,224.0,86.0,9.0,37.0,0.0,1.0,1.0,0.0,0.0,0.0,1.0,158.0,157.0,315.0,0.0,78.0,2,1,RUA ALFREDO PUJOL,1555,RUA,SANTANA,2017013,-23.5022718,-46.6404803,EM-3ª série,"285,2",249.2,249.4,498.6
49,BUENOS AIRES,35000942,2.0,410.0,8.0,0.0,0.0,0.0,1.0,1.0,0.0,1.0,0.0,260.0,172.0,432.0,0.0,432.0,2,1,RUA DOUTOR OLAVO EGIDIO,1008,RUA,SANTANA,2037001,-23.5004137,-46.6164853,EM-3ª série,"293,2",279.6,287.8,567.4000000000001
50,GONCALVES DIAS,35000966,131.0,292.0,23.0,0.0,0.0,1.0,1.0,0.0,1.0,0.0,1.0,221.0,234.0,455.0,0.0,0.0,2,1,NILO LUIS MAZZEI,SN,RUA,VILA ISOLINA MAZZEI,2081070,-23.4925479,-46.601329,EM-3ª série,"266,2",258.5,256.9,515.4
51,CASIMIRO DE ABREU,35000978,261.0,323.0,16.0,0.0,0.0,0.0,0.0,0.0,1.0,1.0,1.0,310.0,291.0,601.0,0.0,321.0,2,1,RUA CORONEL JORDAO,144,RUA,VILA PAIVA,2075030,-23.5075343,-46.6013993,EM-3ª série,"313,4",298.7,306.1,604.8
52,EURICO FIGUEIREDO PROF,35001004,278.0,246.0,16.0,1.0,0.0,1.0,1.0,1.0,0.0,1.0,1.0,274.0,270.0,544.0,0.0,246.0,2,1,FONSECA FILHO MINISTRO,75,RUA,JACANA,2272030,-23.47009,-46.5868392,EM-3ª série,270,270.1,270.8,540.9000000000001
53,ALBERTO CARDOSO DE MELLO NETO DR,35001016,440.0,1273.0,15.0,8.0,3.0,1.0,1.0,1.0,1.0,0.0,1.0,885.0,1066.0,1474.0,477.0,25.0,2,1,VIRGILIA RODRIGUES ALVES DE CARVALHO PINTO PROFESSORA,633,AVENIDA,JARDIM LEONOR MENDES DE BARROS,2346000,-23.46469667,-46.605015,EM-3ª série,"269,4",256.0,256.6,512.6
54,VICTOR DOS SANTOS CUNHA PROF,35001028,315.0,688.0,27.0,0.0,0.0,1.0,1.0,1.0,0.0,1.0,1.0,546.0,580.0,912.0,214.0,3.0,2,1,JOAO SIMAO DE CASTRO,280,AVENIDA,VILA SABRINA,2141000,-23.4900865,-46.5728916,EM-3ª série,"257,7",255.8,256.0,511.8
55,SEBASTIAO DE SOUZA BUENO PROF,35001036,302.0,181.0,17.0,0.0,0.0,1.0,1.0,1.0,1.0,1.0,1.0,251.0,239.0,490.0,0.0,174.0,2,1,FRANCISCO DE MEDEIROS JORDAO,579,RUA,VILA MEDEIROS,2214030,-23.4923262,-46.5860147,EM-3ª série,278,277.4,271.1,548.5
56,JOHANN GUTENBERG,35001041,258.0,220.0,15.0,15.0,0.0,1.0,0.0,1.0,0.0,1.0,1.0,237.0,258.0,495.0,0.0,218.0,2,1,BUSSE CAPITAO,391,RUA,PARQUE EDU CHAVES,2232050,-23.4737789,-46.562776,EM-3ª série,"251,6",244.8,254.3,499.1
57,PEDRO ALEXANDRINO,35001132,321.0,493.0,20.0,0.0,0.0,1.0,1.0,1.0,1.0,1.0,0.0,404.0,478.0,882.0,0.0,20.0,2,1,IMBIRAS,49,RUA,VILA NOVA MAZZEI,2316000,-23.4657755,-46.5972659,EM-3ª série,"275,9",265.0,256.6,521.6
58,JULIO PESTANA,35001144,439.0,586.0,14.0,0.0,0.0,1.0,1.0,1.0,1.0,0.0,1.0,582.0,545.0,753.0,374.0,1.0,2,1,GUAPIRA,2862,AVENIDA,TUCURUVI,2265002,-23.4649144,-46.5831761,EM-3ª série,"244,3",249.8,252.4,502.20000000000005
59,SILVA JARDIM,35001156,510.0,593.0,16.0,0.0,0.0,1.0,1.0,1.0,0.0,1.0,0.0,914.0,708.0,1159.0,463.0,0.0,2,1,TUCURUVI,724,AVENIDA,TUCURUVI,2304002,-23.4813388,-46.6048259,EM-3ª série,"287,4",278.1,269.2,547.3
60,ALFREDO INACIO TRINDADE,35001168,315.0,749.0,17.0,0.0,0.0,1.0,1.0,0.0,1.0,0.0,1.0,517.0,607.0,1124.0,0.0,0.0,2,1,JOAO ROSA,86,RUA,VILA NIVI,2255130,-23.4779753,-46.5918435,EM-3ª série,"257,4",258.0,261.2,519.2
61,ALBINO CESAR,35001173,377.0,953.0,23.0,6.0,6.0,1.0,1.0,1.0,1.0,0.0,1.0,728.0,728.0,1113.0,343.0,21.0,2,1,CAJAMAR,5,RUA,VILA MAZZEI,2308090,-23.4774429,-46.6069164,EM-3ª série,"266,4",260.6,260.5,521.1
62,PHILOMENA BAYLAO PROFA,35001193,343.0,300.0,0.0,0.0,6.0,0.0,1.0,0.0,0.0,0.0,1.0,529.0,553.0,1082.0,0.0,0.0,2,1,CORONEL SEZEFREDO FAGUNDES,14666,,NUCLEO DO ENGORDADOR,2368000,-23.417382,-46.5845822,EM-3ª série,"240,8",242.5,249.8,492.3
63,CYRENE DE OLIVEIRA LAET DONA,35001235,223.0,308.0,88888.0,0.0,0.0,1.0,1.0,1.0,1.0,0.0,0.0,407.0,372.0,432.0,347.0,157.0,2,1,ESTER ELISA,227,RUA,VILA NILO,2278040,-23.4590345,-46.5793447,EM-3ª série,253,251.6,250.8,502.4
64,RUY BARBOSA CONSELHEIRO,35001247,267.0,378.0,8.0,0.0,0.0,1.0,1.0,1.0,1.0,0.0,1.0,324.0,360.0,684.0,0.0,0.0,2,1,ANTONIO CASTELAR DE FRANCESCHI PROFESSOR,200,RUA,HORTO FLORESTAL,2377080,-23.4571255,-46.6305591,EM-3ª série,"280,5",264.6,258.4,523.0
65,JOAO LIGABUE CONEGO,35001259,245.0,170.0,31.0,3.0,0.0,1.0,1.0,1.0,1.0,0.0,1.0,195.0,234.0,429.0,0.0,160.0,2,1,GROTA,483,RUA,VILA GUSTAVO,2206010,-23.4817365,-46.5961521,EM-3ª série,"281,2",264.4,259.8,524.2
66,ANGELO BORTOLO,35001272,418.0,174.0,13.0,26.0,0.0,1.0,1.0,0.0,1.0,0.0,1.0,276.0,329.0,605.0,0.0,160.0,2,1,ANTONIO GONCALVES SILVA,91,RUA,BORTOLANDIA,2352090,-23.4547587,-46.5980016,EM-3ª série,"262,3",249.8,247.1,496.9
67,AMENAIDE BRAGA DE QUEIROZ PROFA,35001284,300.0,446.0,23.0,0.0,0.0,1.0,1.0,1.0,1.0,0.0,0.0,405.0,392.0,797.0,0.0,0.0,2,1,BARRA MANSA,480,RUA,JARDIM FRANCA,2337040,-23.4768029,-46.6117573,EM-3ª série,"283,2",273.2,272.3,545.5
68,CARMOSINA MONTEIRO VIANNA PROFA,35001296,423.0,521.0,16.0,0.0,0.0,1.0,1.0,1.0,1.0,0.0,0.0,495.0,496.0,991.0,0.0,0.0,2,1,ANTONIO PALMIERI,377,RUA,JARDIM BRASIL ZONA NORTE,2210000,-23.485756,-46.5800267,EM-3ª série,"265,1",251.9,249.9,501.8
69,ARNALDO BARRETO,35001302,179.0,205.0,17.0,0.0,0.0,1.0,1.0,1.0,0.0,0.0,0.0,259.0,208.0,424.0,43.0,9.0,2,1,ANTONIO PESTANA,58,RUA,TREMEMBE,2370020,-23.4615883,-46.6219283,EM-3ª série,"278,8",258.8,270.5,529.3
70,PEDRO DE MORAES VICTOR DR,35001326,385.0,351.0,27.0,0.0,0.0,1.0,1.0,1.0,1.0,0.0,1.0,504.0,464.0,801.0,167.0,0.0,2,1,BOAVENTURA COLETTI,SN,RUA,VILA FIDALGO,2324100,-23.4438499,-46.5885532,EM-3ª série,"256,6",252.8,249.0,501.8
71,JOSE DO AMARAL MELLO PROF,35001348,446.0,297.0,12.0,0.0,0.0,1.0,1.0,1.0,1.0,1.0,1.0,629.0,611.0,1187.0,53.0,0.0,2,1,ALPHEU LUIZ GASPARINO,84,RUA,VILA NOVA GALVAO,2281110,-23.4517913,-46.5730456,EM-3ª série,"262,3",265.6,254.8,520.4000000000001
72,SAO PAULO,35001363,0.0,243.0,8.0,10.0,176.0,1.0,1.0,1.0,0.0,0.0,0.0,137.0,129.0,266.0,0.0,266.0,2,1,RUA DA FIGUEIRA,500,RUA,BRAS,3003000,-23.5476752,-46.6275197,EM-3ª série,"324,4",306.1,310.1,616.2
73,LOUREIRO JUNIOR PROFESSOR,35001375,29.0,133.0,0.0,20.0,0.0,1.0,1.0,1.0,1.0,1.0,0.0,81.0,92.0,173.0,0.0,144.0,2,1,RUA PADRE ADELINO,1330,RUA,QUARTA PARADA,3303000,-23.5439165,-46.5809783,EM-3ª série,"291,6",300.3,294.9,595.2
74,ISAI LEIRNER,35001417,194.0,171.0,17.0,28.0,0.0,1.0,1.0,1.0,0.0,0.0,1.0,249.0,204.0,377.0,76.0,178.0,2,1,PLACIDO DE CASTRO,221,RUA,VILA INVERNADA,3349030,-23.5673417,-46.5651789,EM-3ª série,"297,7",300.1,282.6,582.7
75,ANDRE XAVIER GALLICHO PROFESSOR,35001442,184.0,244.0,13.0,28.0,13.0,1.0,1.0,1.0,1.0,1.0,1.0,312.0,346.0,658.0,0.0,21.0,2,1,MOOCA,4650,RUA,MOOCA,3165002,-23.5620765,-46.5812977,EM-3ª série,"284,9",274.9,269.5,544.4
76,ANTONIO FIRMINO DE PROENCA PROF,35001454,429.0,413.0,14.0,0.0,0.0,1.0,1.0,1.0,0.0,1.0,1.0,449.0,467.0,916.0,0.0,0.0,2,1,RUA DA MOOCA,363,RUA,MOOCA,3103000,-23.553576,-46.6212398,EM-3ª série,"291,2",286.7,280.0,566.7
77,AMADEU AMARAL,35001466,422.0,480.0,21.0,3.0,6.0,0.0,1.0,0.0,0.0,1.0,0.0,422.0,547.0,969.0,0.0,0.0,2,1,LARGO SAO JOSE DO BELEM,66,LARGO,BELENZINHO,3057040,-23.5413956,-46.5949461,EM-3ª série,"291,5",275.6,279.6,555.2
78,PAULO LUIG FREI,35001521,353.0,92.0,0.0,1.0,0.0,1.0,1.0,1.0,1.0,0.0,0.0,452.0,446.0,898.0,0.0,0.0,2,1,CARLOS DE CAMPOS,841,AVENIDA,PARI,3028001,-23.525375,-46.6107523,EM-3ª série,262,255.5,267.5,523.0
79,OSWALDO CRUZ,35001569,289.0,314.0,5.0,0.0,0.0,1.0,1.0,1.0,1.0,0.0,0.0,468.0,470.0,938.0,0.0,0.0,2,1,RUA DA MOOCA,2183,RUA,MOOCA,3103003,-23.5548677,-46.6038925,EM-3ª série,"287,4",280.3,274.6,554.9000000000001
80,ORESTES GUIMARAES,35001570,575.0,395.0,17.0,2.0,0.0,0.0,1.0,1.0,1.0,0.0,1.0,713.0,764.0,1477.0,0.0,0.0,2,1,CANINDE,153,,CANINDE,3033000,-23.5326517,-46.6240241,EM-3ª série,"258,7",258.6,258.7,517.3
81,PLINIO BARRETO,35001600,302.0,372.0,16.0,0.0,0.0,0.0,1.0,1.0,1.0,0.0,1.0,356.0,373.0,729.0,0.0,0.0,2,1,SIQUEIRA BUENO,2123,RUA,BELENZINHO,3173010,-23.5541354,-46.5825115,EM-3ª série,"284,8",277.7,278.9,556.5999999999999
82,WOLNY CARVALHO RAMOS PROFESSOR,35001624,676.0,899.0,16.0,0.0,0.0,1.0,1.0,1.0,1.0,0.0,1.0,851.0,802.0,1653.0,0.0,39.0,2,1,BOM JESUS,909,RUA,VILA REGENTE FEIJO,3344000,-23.5635061,-46.5699265,EM-3ª série,"281,7",274.9,276.5,551.4
83,ANCHIETA PADRE,35001659,546.0,716.0,9.0,0.0,0.0,0.0,0.0,1.0,0.0,0.0,0.0,667.0,686.0,1353.0,0.0,0.0,2,1,RUA VISCONDE DE ABAETE,154,RUA,BRAS,3012050,-23.54007831,-46.61359158,EM-3ª série,"270,2",262.2,270.8,533.0
84,MMDC,35001661,311.0,236.0,18.0,0.0,0.0,1.0,1.0,0.0,1.0,0.0,1.0,278.0,283.0,561.0,0.0,216.0,2,1,CUIABA,667,RUA,ALTO DA MOOCA,3183001,-23.56047,-46.5905499,EM-3ª série,"301,8",298.8,293.9,592.7
85,MARIA DA GLORIA COSTA E SILVA PROFESSORA,35001673,327.0,501.0,15.0,0.0,0.0,1.0,1.0,1.0,0.0,0.0,1.0,516.0,602.0,780.0,338.0,0.0,2,1,RUA DOUTOR MONTEIRO DE BARROS,110,RUA,VILA ELZE,3254120,-23.6078798,-46.5275768,EM-3ª série,"272,5",266.4,264.9,531.3
86,MARIO CASASSANTA PROFESSOR,35001685,114.0,73.0,14.0,0.0,0.0,1.0,1.0,0.0,1.0,0.0,0.0,87.0,107.0,194.0,0.0,65.0,2,1,RUA PARAMU,693,RUA,VILA ALPINA,3147100,-23.5941829,-46.565997,EM-3ª série,"268,1",219.3,228.7,448.0
87,MARIO MARQUES DE OLIVEIRA PROFESSOR,35001703,5.0,1529.0,20.0,13.0,0.0,1.0,1.0,1.0,0.0,1.0,0.0,905.0,889.0,1295.0,499.0,32.0,2,1,BUENOPOLIS,234,RUA,VILA SANTA CLARA,3161010,-23.5758869,-46.564625,EM-3ª série,"284,5",272.8,276.9,549.7
88,VICTOR MIGUEL ROMANO PROF,35001727,440.0,621.0,12.0,0.0,0.0,1.0,1.0,0.0,0.0,0.0,0.0,735.0,720.0,1138.0,317.0,0.0,2,1,SAPOPEMBA,7763,AVENIDA,JARDIM ADUTORA,3988010,-23.5958269,-46.5238459,EM-3ª série,"260,3",260.0,256.5,516.5
89,STEFAN ZWEIG,35001740,224.0,120.0,10.0,15.0,0.0,1.0,1.0,1.0,1.0,1.0,1.0,158.0,200.0,358.0,0.0,116.0,2,1,GENARO ARILA ARENSANZ,225,RUA,VILA IVONE,3275090,-23.579104,-46.5545608,EM-3ª série,"291,8",230.9,245.6,476.5
90,AROLDO DE AZEVEDO PROF,35001752,547.0,1258.0,20.0,5.0,0.0,1.0,1.0,0.0,1.0,0.0,1.0,1202.0,1192.0,1724.0,670.0,46.0,2,1,FILIPA ALVARES,SN,RUA,JARDIM PLANALTO,3984020,-23.605812,-46.5101628,EM-3ª série,"274,3",268.2,260.8,529.0
91,SECUNDINO DOMINGUES FILHO DOUTOR,35001776,258.0,196.0,13.0,2.0,0.0,1.0,1.0,1.0,1.0,0.0,0.0,363.0,358.0,721.0,0.0,20.0,2,1,SECUNDINO DOMINGUES,136,RUA,JARDIM INDEPENDENCIA,3223110,-23.5888876,-46.5596935,EM-3ª série,264,269.3,271.9,541.2
92,JOSE HEITOR CARUSI PROFESSOR,35001824,101.0,383.0,15.0,2.0,0.0,1.0,1.0,0.0,1.0,0.0,1.0,280.0,264.0,544.0,0.0,0.0,2,1,ROBERTO UGOLINI COMENDADOR,300,RUA,PARQUE DA MOOCA,3125010,-23.575643,-46.5884799,EM-3ª série,"278,8",278.2,276.6,554.8
93,FRANCISCO BORGES VIEIRA DOUTOR,35001843,134.0,590.0,20.0,0.0,0.0,1.0,1.0,1.0,1.0,0.0,1.0,468.0,465.0,678.0,255.0,1.0,2,1,RUA PARATINQUARA,67,RUA,VILA ALPINA,3209040,-23.5971746,-46.5584238,EM-3ª série,"254,2",256.0,257.3,513.3
94,AMERICO DE MOURA PROFESSOR,35001855,5.0,275.0,22.0,0.0,0.0,1.0,1.0,1.0,1.0,1.0,1.0,163.0,139.0,302.0,0.0,302.0,2,1,RUA MENDONCA CORTE REAL,SN,RUA,JARDIM AVELINO,3227110,-23.5840235,-46.5739147,EM-3ª série,"304,4",295.1,295.7,590.8
95,LUIZA MENDES CORREA SOUZA PROFESSORA,35001867,295.0,448.0,12.0,0.0,0.0,0.0,1.0,1.0,1.0,1.0,1.0,541.0,560.0,1101.0,0.0,1.0,2,1,AVENIDA PROFESSOR LUIZ IGNACIO ANHAIA MELLO,5796,AVENIDA,PARQUE SAO LUCAS,3294100,-23.5920586,-46.5420881,EM-3ª série,"287,9",283.7,276.2,559.9
96,JOSE CHEDIAK,35001880,503.0,873.0,15.0,0.0,0.0,1.0,1.0,1.0,1.0,1.0,0.0,834.0,928.0,1195.0,567.0,83.0,2,1,ORATORIO,2320,AVENIDA,PARQUE SAO LUCAS,3220100,-23.5926539,-46.5472282,EM-3ª série,"276,1",275.9,279.1,555.0
97,CLEMENTE QUAGLIO PROFESSOR,35001910,109.0,94.0,15.0,0.0,0.0,0.0,1.0,1.0,1.0,1.0,1.0,93.0,119.0,212.0,0.0,95.0,2,1,MANUEL ONHA,234,RUA,VILA ORATORIO,3192100,-23.5729927,-46.5796289,EM-3ª série,"262,5",264.1,262.4,526.5
98,JOAQUIM BRAGA DE PAULA PROFESSOR,35001934,254.0,351.0,12.0,0.0,0.0,1.0,1.0,1.0,1.0,1.0,1.0,335.0,304.0,639.0,0.0,10.0,2,1,AVENIDA  DO ORATORIO,4330,AVENIDA,JARDIM GUAIRACA,3220200,-23.601844,-46.5321396,EM-3ª série,"273,4",267.6,262.0,529.6
99,JULIA MACEDO PANTOJA PROFESSORA,35001958,325.0,432.0,27.0,0.0,0.0,0.0,1.0,0.0,1.0,0.0,1.0,522.0,508.0,1030.0,0.0,4.0,2,1,ASSUPA,200,RUA,VILA PRUDENTE,3137050,-23.5798668,-46.576125,EM-3ª série,"292,1",284.5,280.5,565.0
100,NORBERTO MAYER FILHO DEPUTADO,35001961,298.0,301.0,13.0,0.0,0.0,1.0,1.0,1.0,1.0,1.0,1.0,437.0,374.0,632.0,179.0,11.0,2,1,MANUEL LUIS DE VERGUEIRO PADRE,365,RUA,VILA ANTONIETA,3476000,-23.5738803,-46.5162174,EM-3ª série,"285,7",283.1,288.8,571.9000000000001
101,MOACYR CAMPOS PROFESSOR,35001971,396.0,1169.0,8.0,82.0,0.0,1.0,1.0,1.0,1.0,1.0,1.0,882.0,870.0,1515.0,237.0,30.0,2,1,RIO DAS PEDRAS,2022,AVENIDA,JARDIM ARICANDUVA,3452100,-23.5707401,-46.507438,EM-3ª série,283,271.8,272.2,544.0
102,JOAO DIAS DA SILVEIRA PROFESSOR,35002008,10.0,635.0,13.0,0.0,0.0,1.0,1.0,0.0,1.0,0.0,1.0,374.0,359.0,733.0,0.0,8.0,2,1,SOUSA BREVES,80,RUA,VILA ZILDA,3069060,-23.5352751,-46.5638088,EM-3ª série,"292,9",287.7,281.4,569.0999999999999
103,AMELIA DE ARAUJO DONA,35002057,486.0,586.0,32.0,0.0,0.0,1.0,1.0,1.0,1.0,0.0,1.0,549.0,585.0,1134.0,0.0,5.0,2,1,VACANGA,415,RUA,VILA FERNANDES,3433025,-23.5604229,-46.531231,EM-3ª série,299,282.4,286.2,568.5999999999999
104,ARACY LEME DA VEIGA RAVACHE PROFESSORA,35002069,379.0,444.0,6.0,0.0,0.0,1.0,1.0,1.0,1.0,1.0,0.0,441.0,454.0,895.0,0.0,2.0,2,1,CANDIDO MENDES DE ALMEIDA,184,PRACA,JARDIM NOVO CARRAO,3908290,-23.5804513,-46.5076536,EM-3ª série,"267,6",268.9,262.6,531.5
105,CARAMURU,35002136,264.0,199.0,20.0,0.0,0.0,0.0,1.0,1.0,1.0,0.0,1.0,247.0,251.0,498.0,0.0,219.0,2,1,REGO BARROS,501,RUA,JARDIM VILA FORMOSA,3460000,-23.5639814,-46.5179941,EM-3ª série,"296,4",284.4,282.1,566.5
106,PAULO NOVAES DE CARVALHO PROFESSOR,35002148,278.0,430.0,11.0,58.0,0.0,0.0,1.0,1.0,0.0,0.0,1.0,369.0,395.0,764.0,0.0,4.0,2,1,FRANCISCO MARENGO,475,RUA,TATUAPE,3313000,-23.541216,-46.5591103,EM-3ª série,"280,3",268.1,278.5,546.6
107,PEDRO ARBUES CORONEL,35002159,81.0,217.0,18.0,2.0,0.0,1.0,1.0,1.0,1.0,0.0,1.0,158.0,149.0,307.0,0.0,231.0,2,1,LUCINDA GOMES BARRETO,605,RUA,VILA NOVA MANCHESTER,3440040,-23.5459756,-46.5401533,EM-3ª série,"306,7",300.3,296.2,596.5
108,SALVADOR ROCCO PROFESSOR,35002161,270.0,303.0,28.0,0.0,0.0,1.0,1.0,1.0,1.0,0.0,0.0,310.0,316.0,626.0,0.0,1.0,2,1,RENATO RINALDI,31,RUA,VILA CARRAO,3426000,-23.5482981,-46.5451842,EM-3ª série,"275,5",253.8,267.7,521.5
109,JOAO BORGES PROFESSOR,35002173,564.0,623.0,29.0,0.0,0.0,1.0,1.0,1.0,1.0,0.0,0.0,620.0,611.0,1231.0,0.0,6.0,2,1,ITAPURA,976,RUA,VILA GOMES CARDIM,3310000,-23.5473192,-46.5663684,EM-3ª série,"272,3",259.4,277.3,536.7
110,IRENE DE LIMA PAIVA PROFESSORA,35002197,465.0,606.0,13.0,52.0,0.0,0.0,1.0,1.0,1.0,0.0,1.0,584.0,571.0,1155.0,0.0,28.0,2,1,LUTECIA,1966,RUA,VILA CARRAO,3423000,-23.5606211,-46.54136,EM-3ª série,"281,1",278.6,277.0,555.6
111,JOSE MARQUES DA CRUZ PROFESSOR,35002203,6.0,426.0,17.0,28.0,0.0,0.0,1.0,1.0,0.0,1.0,1.0,245.0,211.0,456.0,0.0,456.0,2,1,ARACE,563,RUA,VILA FORMOSA,3362050,-23.5617075,-46.5424026,EM-3ª série,"299,4",289.6,294.0,583.6
112,ALMERINDA RODRIGUES MELLO PROFESSORA,35002239,195.0,142.0,13.0,20.0,0.0,1.0,1.0,1.0,1.0,0.0,0.0,185.0,173.0,358.0,0.0,130.0,2,1,RUA REI ALBERTO DA BELGICA,571,RUA,CHACARA BELENZINHO,3381000,-23.5768645,-46.5341616,EM-3ª série,"266,9",264.9,254.6,519.5
113,ASCENDINO REIS PROFESSOR,35002252,15.0,1275.0,27.0,0.0,0.0,1.0,0.0,1.0,1.0,1.0,1.0,815.0,647.0,1115.0,347.0,5.0,2,1,TUIUTI,2865,RUA,TATUAPE,3307005,-23.5504945,-46.5726194,EM-3ª série,"261,6",266.5,270.4,536.9
114,OSWALDO CATALANO,35002264,6.0,1563.0,17.0,0.0,0.0,0.0,1.0,1.0,0.0,0.0,0.0,1119.0,843.0,1467.0,495.0,82.0,2,1,FILIPE CAMARAO,350,RUA,TATUAPE,3065000,-23.5383279,-46.5791791,EM-3ª série,"281,2",274.0,274.4,548.4
115,ORVILLE DERBY,35002297,207.0,480.0,13.0,0.0,0.0,0.0,1.0,0.0,1.0,0.0,1.0,493.0,522.0,688.0,327.0,1.0,2,1,SAIGON,55,RUA,VILA FORMOSA,3360010,-23.5679091,-46.5438172,EM-3ª série,"269,9",257.4,262.7,520.0999999999999
116,SANTOS AMARO DA CRUZ PROFESSOR,35002318,726.0,855.0,13.0,74.0,0.0,1.0,1.0,1.0,1.0,1.0,1.0,875.0,869.0,1290.0,454.0,24.0,2,1,BARREIRA GRANDE,795,AVENIDA,JARDIM COLORADO,3386000,-23.584752,-46.527196,EM-3ª série,"268,9",254.3,255.6,509.9
117,PILAR GARCIA VIDAL DONA,35002331,675.0,568.0,10.0,4.0,0.0,1.0,1.0,1.0,1.0,1.0,1.0,629.0,660.0,1289.0,0.0,562.0,2,1,AGENOR CALDEIRA DINIZ PASTOR,48,RUA,JARDIM IMPERADOR ZONA LESTE,3935080,-23.5847444,-46.4986343,EM-3ª série,"257,3",241.0,250.3,491.3
118,LUIZ ANTONIO FRAGOSO PROF,35002409,2.0,149.0,15.0,2.0,3.0,1.0,1.0,1.0,1.0,0.0,1.0,206.0,208.0,325.0,89.0,10.0,2,1,ANTONIO ESTEVAO DE CARVALHO,1778,AVENIDA,CIDADE PATRIARCA,3540100,-23.5288143,-46.5069695,EM-3ª série,271,256.4,255.9,512.3
119,GABRIEL ORTIZ PROFESSOR,35002422,20.0,1814.0,10.0,16.0,0.0,1.0,0.0,1.0,1.0,0.0,1.0,1021.0,995.0,1354.0,662.0,19.0,2,1,AMADOR BUENO DA VEIGA,2932,AVENIDA,PENHA DE FRANCA,3652000,-23.5226718,-46.5178675,EM-3ª série,266,265.0,267.1,532.1
120,JAMIL PEDRO SAWAYA PROF,35002434,380.0,213.0,15.0,0.0,0.0,1.0,1.0,1.0,1.0,1.0,1.0,275.0,333.0,608.0,0.0,202.0,2,1,PALMEIRINA,189,RUA,CIDADE PATRIARCA,3556010,-23.5413971,-46.5015361,EM-3ª série,"260,2",252.4,277.0,529.4
121,JOAO MARIA OGNO OSB DOM,35002461,213.0,390.0,17.0,1.0,0.0,1.0,1.0,1.0,1.0,0.0,0.0,320.0,380.0,700.0,0.0,0.0,2,1,MARIA CARLOTA,400,RUA,VILA ESPERANCA,3647000,-23.5249955,-46.5289497,EM-3ª série,"268,6",272.2,273.8,546.0
122,ZALINA ROLIM DONA,35002471,162.0,388.0,18.0,0.0,0.0,0.0,1.0,0.0,0.0,0.0,0.0,328.0,284.0,612.0,0.0,25.0,2,1,LUIS CARLOS DOUTOR,740,RUA,VILA ARICANDUVA,3505000,-23.5351548,-46.5441914,EM-3ª série,"272,5",262.5,258.4,520.9
123,NOSSA SENHORA DA PENHA,35002513,13.0,1490.0,13.0,0.0,0.0,0.0,1.0,1.0,1.0,1.0,0.0,968.0,763.0,1445.0,286.0,0.0,2,1,RUA PADRE BENEDITO DE CAMARGO,762,RUA,PENHA DE FRANCA,3604000,-23.5209892,-46.5478675,EM-3ª série,"293,2",281.4,279.8,561.2
124,ANTAO PADRE,35002525,370.0,401.0,9.0,0.0,0.0,1.0,1.0,1.0,0.0,0.0,0.0,530.0,563.0,826.0,267.0,0.0,2,1,RUA SANTO AFONSO,273,RUA,PENHA,3632020,-23.5285984,-46.5479278,EM-3ª série,"280,6",270.8,262.1,532.9000000000001
125,ADELAIDE FERRAZ DE OLIVEIRA PROFA,35002549,295.0,208.0,14.0,0.0,0.0,0.0,1.0,0.0,1.0,0.0,1.0,241.0,290.0,531.0,0.0,206.0,2,1,BENTO DO SAPUCAI SAO,677,RUA,VILA GUILHERMINA,3542050,-23.5326108,-46.5144325,EM-3ª série,"269,7",261.5,269.4,530.9
126,MARIA APARECIDA DE CASTRO MASIERO PROFESSORA,35002550,6.0,430.0,0.0,1.0,0.0,1.0,1.0,1.0,0.0,0.0,1.0,228.0,235.0,463.0,0.0,463.0,2,1,PANGAUA,210,RUA,VILA RE,3665010,-23.5298874,-46.4991124,EM-3ª série,"307,3",280.0,295.2,575.2
127,BARAO DE RAMALHO,35002586,510.0,579.0,22.0,1.0,0.0,1.0,1.0,0.0,1.0,0.0,1.0,610.0,611.0,1104.0,117.0,1.0,2,1,AMADOR BUENO DA VEIGA,604,AVENIDA,PENHA DE FRANCA,3636000,-23.5223929,-46.5385854,EM-3ª série,263,255.8,268.0,523.8
128,ASTOLFO ARAUJO DEPUTADO,35002598,208.0,193.0,16.0,0.0,0.0,1.0,0.0,0.0,0.0,0.0,0.0,206.0,224.0,430.0,0.0,192.0,2,1,ITAQUERA,2417,AVENIDA,JARDIM MARINGA,3526000,-23.5505724,-46.4976348,EM-3ª série,"265,2",249.3,261.4,510.7
129,MARIA AUGUSTA DE AVILA PROFA,35002616,291.0,785.0,18.0,22.0,0.0,1.0,1.0,1.0,1.0,1.0,1.0,742.0,751.0,1070.0,423.0,19.0,2,1,FERNANDES PEREIRA,690,RUA,VILA SANTA TERESA ZONA LESTE,3565000,-23.540119,-46.4907252,EM-3ª série,"257,4",248.0,245.7,493.7
130,INFANTE DOM HENRIQUE,35002636,294.0,818.0,23.0,1.0,0.0,1.0,1.0,1.0,1.0,0.0,1.0,620.0,583.0,1203.0,0.0,20.0,2,1,TEODORO MASCARENHAS,133,RUA,VILA MATILDE,3515010,-23.5420244,-46.5314877,EM-3ª série,"264,8",266.3,266.7,533.0
131,JOSE PEREIRA DE QUEIROZ DR,35002641,2.0,582.0,8.0,2.0,0.0,1.0,1.0,1.0,1.0,0.0,1.0,335.0,324.0,659.0,0.0,0.0,2,1,PARANHOS,264,RUA,VILA NOVA SAVOIA,3532020,-23.543045,-46.5148461,EM-3ª série,"281,9",277.9,273.8,551.7
132,AFONSO PENNA JUNIOR PROF,35002653,227.0,351.0,17.0,0.0,0.0,0.0,1.0,1.0,0.0,1.0,1.0,304.0,324.0,628.0,0.0,9.0,2,1,MUANA,31,RUA,JARDIM MARINGA,3525090,-23.5520674,-46.5145448,EM-3ª série,"271,1",256.4,255.7,512.0999999999999
133,JOSE TALARICO,35002677,190.0,425.0,15.0,0.0,0.0,1.0,1.0,0.0,1.0,0.0,0.0,455.0,430.0,605.0,280.0,0.0,2,1,WALDEMAR CARLOS PEREIRA,452,AVENIDA,VILA TALARICO,3533000,-23.5437324,-46.5212502,EM-3ª série,"267,6",273.6,265.8,539.4000000000001
134,EXERCITO BRASILEIRO,35002689,2.0,388.0,17.0,0.0,0.0,1.0,1.0,0.0,1.0,1.0,1.0,217.0,272.0,489.0,0.0,51.0,2,1,REBELO DA SILVA,127,RUA,JARDIM SAO NICOLAU,3685050,-23.5262105,-46.4828798,EM-3ª série,"284,7",275.7,269.0,544.7
135,JOAO RAMACCIOTTI PROF,35002690,409.0,248.0,6.0,2.0,0.0,1.0,1.0,1.0,1.0,0.0,1.0,315.0,352.0,667.0,0.0,229.0,2,1,JOAO DORIVAL CARDOSO DOUTOR,189,RUA,PARQUE DAS PAINEIRAS,3694060,-23.5372932,-46.4813016,EM-3ª série,"302,3",292.1,265.7,557.8
136,VITAL FOGACA DE ALMEIDA DOUTOR,35002707,747.0,735.0,18.0,45.0,0.0,1.0,1.0,1.0,0.0,0.0,1.0,933.0,889.0,1332.0,490.0,0.0,2,1,MALACACHETA,118,RUA,JARDIM JAU ZONA LESTE,3713020,-23.5115,-46.546104,EM-3ª série,"279,2",259.4,260.3,519.7
137,CAETANO MIELE PROFESSOR,35002719,255.0,590.0,18.0,2.0,0.0,1.0,1.0,0.0,1.0,0.0,1.0,439.0,513.0,849.0,103.0,9.0,2,1,FRANCISCO DAMANTE,61,RUA,VILA LONDRINA,3731000,-23.5094022,-46.5344475,EM-3ª série,"278,1",272.2,267.0,539.2
138,IRENE BRANCO DA SILVA PROFESSORA,35002732,258.0,178.0,18.0,0.0,0.0,1.0,1.0,1.0,1.0,1.0,1.0,217.0,239.0,456.0,0.0,169.0,2,1,QUARUNAS,352,RUA,VILA RUI BARBOSA,3734220,-23.5122926,-46.5257745,EM-3ª série,"291,6",284.2,276.9,561.0999999999999
139,FILOMENA MATARAZZO CONDESSA,35002744,2.0,461.0,20.0,2.0,0.0,0.0,1.0,0.0,1.0,0.0,1.0,245.0,260.0,505.0,0.0,505.0,2,1,PARANAGUA,472,AVENIDA,ERMELINO MATARAZZO,3806000,-23.5017507,-46.4761619,EM-3ª série,"272,1",277.1,272.9,550.0
140,BENEDITA DE REZENDE PROFESSORA,35002773,660.0,685.0,32.0,52.0,0.0,1.0,1.0,1.0,1.0,0.0,1.0,658.0,787.0,1113.0,332.0,6.0,2,1,ASSIS RIBEIRO DOUTOR,8402,AVENIDA,ERMELINO MATARAZZO,3827000,-23.4856929,-46.4818624,EM-3ª série,"267,9",263.4,261.6,525.0
141,THEREZA DOROTHEA DE ARRUDA REGO PROFESSORA,35002800,259.0,367.0,27.0,0.0,0.0,0.0,0.0,1.0,0.0,1.0,0.0,371.0,444.0,638.0,177.0,1.0,2,1,CONCEICAO DO CASTELO,64,RUA,BURGO PAULISTA,3681020,-23.5219329,-46.4880625,EM-3ª série,"262,6",254.6,252.0,506.6
142,SILVA PRADO DEPUTADO,35002811,623.0,870.0,0.0,0.0,0.0,0.0,1.0,1.0,1.0,0.0,1.0,889.0,1067.0,1358.0,598.0,0.0,2,1,LUIS ANTONIO RANTIN MOUTINHO ENGENHEIRO,296,RUA,JARDIM POPULAR,3672010,-23.5161569,-46.5036147,EM-3ª série,"282,1",268.0,268.5,536.5
143,ERMELINO MATARAZZO,35002835,354.0,348.0,0.0,0.0,0.0,1.0,1.0,1.0,1.0,0.0,1.0,505.0,473.0,681.0,297.0,3.0,2,1,ABEL TAVARES,SN,RUA,JARDIM BELEM,3810110,-23.4929101,-46.4705713,EM-3ª série,256,252.1,256.2,508.29999999999995
144,MIGUEL DE CERVANTES Y SAAVEDRA DOM,35002847,438.0,891.0,0.0,0.0,0.0,0.0,1.0,1.0,1.0,0.0,1.0,686.0,787.0,1071.0,402.0,0.0,2,1,CANDIDO MOTA,267,RUA,JARDIM PENHA,3759000,-23.5053207,-46.4947038,EM-3ª série,"266,5",260.6,259.6,520.2
145,MARIO KOZEL FILHO,35002859,667.0,625.0,17.0,0.0,0.0,1.0,1.0,1.0,1.0,0.0,0.0,980.0,1056.0,1370.0,666.0,0.0,2,1,TIETE,49,RUA,VILA SEABRA,8180410,-23.4925828,-46.407835,EM-3ª série,"258,5",245.2,247.0,492.2
146,ESTELA BORGES MORATO,35002860,26.0,580.0,9.0,72.0,0.0,1.0,1.0,1.0,1.0,1.0,1.0,765.0,731.0,1058.0,438.0,0.0,2,1,TUJUMIRIM,419,RUA,JARDIM HELENA,8081180,-23.4802018,-46.42021283,EM-3ª série,"277,6",269.8,261.2,531.0
147,CARLOS GOMES,35002902,603.0,701.0,28.0,104.0,0.0,0.0,0.0,1.0,0.0,0.0,0.0,683.0,667.0,1350.0,0.0,671.0,2,1,ANTONIO BERNARDO SILVESTRE,203,AVENIDA,VILA SAO SILVESTRE ZONA LESTE,8011390,-23.4981663,-46.444132,EM-3ª série,"289,2",278.1,281.6,559.7
148,DOM PEDRO I,35002914,5.0,1426.0,27.0,1.0,0.0,1.0,1.0,1.0,1.0,1.0,1.0,932.0,729.0,1366.0,295.0,42.0,2,1,AMERICO GOMES DA COSTA,59,RUA,VILA AMERICANA,8010120,-23.4944114,-46.4400106,EM-3ª série,285,279.0,270.9,549.9
149,ARMANDO GOMES DE ARAUJO PROF,35002926,381.0,566.0,18.0,4.0,0.0,1.0,1.0,1.0,1.0,0.0,1.0,633.0,660.0,899.0,394.0,0.0,2,1,ALFREDO MOREIRA PINTO,SN,RUA,VILA SIMONE,8110220,-23.5035352,-46.4007931,EM-3ª série,"280,5",270.6,262.0,532.6
150,JOSE BONIFACIO ANDRADA E SILVA JARDIM PROF,35002963,508.0,540.0,16.0,67.0,0.0,1.0,1.0,1.0,0.0,0.0,1.0,554.0,582.0,776.0,360.0,1.0,2,1,ANDRE FURTADO DE MENDONCA,473,RUA,JARDIM ROMANO,8191260,-23.479647,-46.3847834,EM-3ª série,"257,6",254.3,251.0,505.3
151,MARIO REYS COMENDADOR,35002975,2.0,327.0,3.0,0.0,0.0,0.0,1.0,1.0,1.0,0.0,1.0,151.0,204.0,355.0,0.0,355.0,2,1,JERIBATUBA,102,RUA,PARADA XV DE NOVEMBRO,8246090,-23.5284056,-46.4370449,EM-3ª série,"282,7",279.7,270.2,549.9
152,SHINQUICHI AGARI,35002999,292.0,463.0,0.0,0.0,0.0,0.0,1.0,1.0,1.0,1.0,0.0,591.0,602.0,1193.0,0.0,11.0,2,1,JOAO MAXIMIANO MAFRA,351,RUA,VILA CURUCA,8030350,-23.5013065,-46.4214601,EM-3ª série,"296,4",278.4,282.7,561.0999999999999
153,DARIO DE QUEIROZ PROF,35003001,136.0,245.0,12.0,0.0,0.0,1.0,1.0,0.0,1.0,0.0,0.0,172.0,239.0,411.0,0.0,244.0,2,1,LUIS ATILIO ROSSI,75,RUA,CIDADE NITRO OPERARIA,8010440,-23.4947312,-46.4332505,EM-3ª série,293,285.3,274.4,559.7
154,ATAULPHO ALVES,35003037,151.0,583.0,17.0,0.0,0.0,1.0,1.0,1.0,1.0,0.0,0.0,584.0,633.0,808.0,409.0,1.0,2,1,MARIA SUSANO POLILO,485,RUA,VILA ROSARIA,8021300,-23.5024004,-46.4352738,EM-3ª série,"274,6",264.9,261.7,526.5999999999999
155,ELIZA RAQUEL MACEDO DE SOUZA PROFA,35003050,435.0,840.0,0.0,0.0,0.0,1.0,1.0,0.0,0.0,0.0,0.0,801.0,994.0,1173.0,622.0,40.0,2,1,DARCI MANO,97,RUA,VILA ODETE,8440400,-23.5347121,-46.4115382,EM-3ª série,"264,5",253.4,254.8,508.20000000000005
156,EMILIA DE PAIVA MEIRA PROFESSORA,35003062,628.0,821.0,15.0,0.0,0.0,1.0,1.0,1.0,0.0,0.0,0.0,767.0,826.0,1087.0,506.0,2.0,2,1,PORTO XAVIER,172,RUA,VILA CARMOSINA,8210170,-23.5410645,-46.454473,EM-3ª série,"253,7",248.1,248.0,496.1
157,HELENA LOMBARDI BRAGA PROFESSORA,35003086,486.0,603.0,4.0,3.0,0.0,0.0,1.0,0.0,1.0,1.0,1.0,544.0,598.0,1142.0,0.0,0.0,2,1,VIRGINIA DE MIRANDA,138,RUA,JARDIM NORMA,8240010,-23.5266316,-46.4526737,EM-3ª série,"276,5",267.3,259.9,527.2
158,CIDADE DE HIROSHIMA,35003104,552.0,991.0,13.0,0.0,0.0,1.0,1.0,0.0,1.0,1.0,1.0,889.0,996.0,1613.0,272.0,59.0,2,1,VENANCIO LISBOA,382,RUA,JARDIM NOSSA SENHORA DO CARMO,8280590,-23.5681526,-46.4693974,EM-3ª série,"273,6",265.3,261.1,526.4000000000001
159,APPARECIDA RAHAL PROFESSORA,35003116,526.0,503.0,14.0,0.0,0.0,1.0,1.0,0.0,1.0,0.0,1.0,504.0,573.0,774.0,303.0,0.0,2,1,FONTOURA XAVIER,542,RUA,ITAQUERA,8295300,-23.54975,-46.45539,EM-3ª série,"264,1",265.0,252.8,517.8
160,DECIO FERRAZ ALVIM PROFESSOR DOUTOR,35003128,360.0,461.0,0.0,38.0,0.0,1.0,1.0,0.0,1.0,0.0,1.0,707.0,780.0,1083.0,404.0,9.0,2,1,RUA EDMUNDO DA CUNHA,95,RUA,JARDIM ESTER,8330230,-23.6207,-46.46302,EM-3ª série,"245,6",253.7,256.8,510.5
161,LUIZ ROSANOVA PROFESSOR,35003141,386.0,498.0,0.0,0.0,0.0,1.0,1.0,1.0,1.0,0.0,1.0,487.0,475.0,636.0,326.0,20.0,2,1,MIGUEL ACHIOLE DA FONSECA,1447,AVENIDA,JARDIM SAO PAULOZONA LESTE,8461110,-23.5597125,-46.4038964,EM-3ª série,"266,8",242.9,242.9,485.8
162,LUZIA DE QUEIROZ E OLIVEIRA PROFA,35003153,333.0,198.0,12.0,0.0,0.0,1.0,1.0,1.0,1.0,0.0,1.0,257.0,285.0,542.0,0.0,180.0,2,1,ITAQUERA,5912,AVENIDA,CIDADE LIDER,8285060,-23.5531436,-46.4714726,EM-3ª série,"239,1",243.4,242.2,485.6
163,MILTON CRUZEIRO PROFESSOR,35003220,728.0,932.0,6.0,0.0,0.0,0.0,1.0,0.0,1.0,1.0,0.0,931.0,928.0,1130.0,729.0,0.0,2,1,ALAMANDAS,36,AVENIDA,CIDADE ANTONIO ESTEVAO DE CARVALHO,8225310,-23.5355419,-46.4675919,EM-3ª série,"249,5",252.4,253.2,505.6
164,ADELINO JOSE DA SILVA D AZEVEDO PROF,35003232,236.0,262.0,25.0,3.0,0.0,1.0,1.0,1.0,1.0,0.0,1.0,255.0,298.0,446.0,107.0,7.0,2,1,ALBERTO DE MACEDO,127,RUA,JARDIM SANTA ADELIA,3973000,-23.6206425,-46.4795118,EM-3ª série,"267,6",250.1,252.6,502.7
165,ADHEMAR ANTONIO PRADO PROFESSOR,35003244,391.0,318.0,3.0,24.0,0.0,1.0,1.0,1.0,0.0,0.0,1.0,384.0,376.0,760.0,0.0,325.0,2,1,FERNANDES TOURINHO,133,RUA,JARDIM VERA CRUZZONA LESTE,8330120,-23.6171596,-46.47002403,EM-3ª série,"272,6",262.5,259.6,522.1
166,PEDRO TAQUES,35003256,291.0,464.0,10.0,0.0,0.0,1.0,1.0,0.0,1.0,0.0,1.0,633.0,614.0,742.0,505.0,0.0,2,1,CARLOS RUHL COMANDANTE,56,RUA,VILA PRINCESA ISABEL,8410130,-23.545074,-46.4142855,EM-3ª série,266,262.7,249.1,511.79999999999995
167,SEBASTIAO FARIA ZIMBRES PROFESSOR,35003268,229.0,374.0,8.0,1.0,0.0,1.0,1.0,1.0,1.0,0.0,0.0,335.0,321.0,656.0,0.0,3.0,2,1,QUINTA DO PACO,45,RUA,VILA MARILENA,8411280,-23.55292194,-46.40872963,EM-3ª série,"261,5",258.8,244.0,502.8
168,SAO JOAO EVANGELISTA,35003273,372.0,533.0,3.0,0.0,0.0,1.0,1.0,1.0,0.0,1.0,1.0,561.0,615.0,1176.0,0.0,0.0,2,1,FORTE CANANEIA,3,RUA,PARQUE SAO LOURENCO,8340020,-23.6010053,-46.4638535,EM-3ª série,"275,1",267.8,257.4,525.2
169,ROMEU DE MORAES,35003372,223.0,237.0,12.0,0.0,0.0,0.0,1.0,1.0,1.0,0.0,0.0,203.0,300.0,503.0,0.0,0.0,2,1,RUA TONELERO,407,RUA,VILA IPOJUCA,5056000,-23.53133526,-46.70411961,EM-3ª série,"275,3",280.8,279.2,560.0
170,ANHANGUERA,35003384,2.0,515.0,17.0,0.0,0.0,1.0,1.0,1.0,1.0,1.0,1.0,313.0,274.0,587.0,0.0,2.0,2,1,RUA ANTONIO RAPOSO,87,RUA,LAPA,5074020,-23.5219783,-46.7054821,EM-3ª série,"289,2",277.7,265.5,543.2
171,PEREIRA BARRETO,35003402,1.0,402.0,13.0,0.0,0.0,1.0,1.0,1.0,1.0,0.0,1.0,238.0,211.0,449.0,0.0,449.0,2,1,RUA NOSSA SENHORA DA LAPA,615,RUA,LAPA,5072000,-23.5245167,-46.7055331,EM-3ª série,"291,7",288.5,278.9,567.4
172,CANUTO DO VAL,35003426,372.0,337.0,0.0,0.0,0.0,0.0,0.0,0.0,1.0,0.0,1.0,361.0,406.0,767.0,0.0,0.0,2,1,AVENIDA DOUTOR ABRAAO RIBEIRO,526,AVENIDA,BOM RETIRO,1133020,-23.5206021,-46.656871,EM-3ª série,"280,5",277.7,270.4,548.0999999999999
173,JOAO KOPKE,35003451,445.0,387.0,16.0,2.0,0.0,0.0,1.0,0.0,1.0,1.0,1.0,489.0,549.0,922.0,116.0,0.0,2,1,ALAMEDA CLEVELAND,331,ALAMEDA,CAMPOS ELISEOS,1218000,-23.5322419,-46.6420806,EM-3ª série,"292,8",275.9,269.3,545.2
174,ZULEIKA DE BARROS MARTINS FERREIRA PROFESSORA,35003499,2.0,356.0,14.0,60.0,0.0,1.0,1.0,1.0,1.0,1.0,1.0,209.0,208.0,417.0,0.0,1.0,2,1,RUA PADRE CHICO,420,RUA,PERDIZES,5008010,-23.5292352,-46.6832952,EM-3ª série,"274,4",281.5,272.0,553.5
175,ALARICO SILVEIRA DOUTOR,35003530,286.0,142.0,10.0,0.0,0.0,0.0,1.0,1.0,1.0,0.0,0.0,203.0,240.0,443.0,0.0,125.0,2,1,RUA CONSELHEIRO BROTERO,100,RUA,BARRA FUNDA,1154000,-23.5281402,-46.6558936,EM-3ª série,"280,4",217.5,226.2,443.7
176,JOSE MONTEIRO BOANOVA PROFESSOR,35003542,211.0,351.0,17.0,0.0,0.0,1.0,1.0,1.0,1.0,0.0,1.0,270.0,326.0,596.0,0.0,3.0,2,1,RUA DALTON,10,RUA,ALTO DA LAPA,5086030,-23.5259,-46.7225,EM-3ª série,"265,1",280.4,275.8,556.2
177,MAURO DE OLIVEIRA PROFESSOR,35003554,2.0,287.0,16.0,29.0,80.0,1.0,1.0,0.0,0.0,1.0,0.0,182.0,142.0,324.0,0.0,324.0,2,1,RUA PEDRO SOARES DE ALMEIDA,134,RUA,VILA ANGLO BRASILEIRA,5029030,-23.5421743,-46.6943926,EM-3ª série,"309,7",296.1,289.9,586.0
178,MISS BROWNE,35003566,113.0,107.0,20.0,0.0,0.0,1.0,1.0,1.0,1.0,1.0,0.0,103.0,143.0,246.0,0.0,0.0,2,1,RUA PADRE CHICO,102,RUA,PERDIZES,5008010,-23.5059333,-46.58639,EM-3ª série,"282,4",268.0,266.8,534.8
179,MANUEL CIRIDIAO BUARQUE PROFESSOR,35003585,2.0,476.0,10.0,2.0,0.0,1.0,1.0,1.0,1.0,1.0,1.0,289.0,262.0,551.0,0.0,0.0,2,1,RUA CERRO CORA,770,RUA,VILA ROMANA,5061100,-23.5399902,-46.7038066,EM-3ª série,"286,4",280.7,283.4,564.0999999999999
180,EMILIANO AUGUSTO CAVALCANTI DE ALBUQUERQUE E MELO,35003657,100.0,312.0,28.0,0.0,0.0,0.0,1.0,1.0,1.0,0.0,0.0,215.0,254.0,469.0,0.0,0.0,2,1,AVENIDA DIOGENES RIBEIRO DE LIMA,2001,AVENIDA,ALTO DE PINHEIROS,5458001,-23.5428102,-46.7171559,EM-3ª série,"299,1",289.2,281.4,570.5999999999999
181,ALEXANDRE VON HUMBOLDT,35003669,6.0,482.0,20.0,98.0,0.0,1.0,1.0,1.0,1.0,0.0,1.0,272.0,238.0,510.0,0.0,510.0,2,1,RAIMUNDO PEREIRA DE MAGALHAES,1201,AVENIDA,VILA ANASTACIO,5092040,-23.50962733,-46.71518955,EM-3ª série,"290,3",291.9,289.5,581.4
182,FIDELINO DE FIGUEIREDO PROFESSOR,35003670,508.0,630.0,25.0,0.0,0.0,1.0,1.0,1.0,0.0,1.0,1.0,595.0,716.0,1147.0,164.0,0.0,2,1,RUA IMACULADA CONCEICAO,71,RUA,VILA BUARQUE,1226020,-23.5389663,-46.653018,EM-3ª série,"290,1",281.0,269.3,550.3
183,FERNAO DIAS PAES,35003682,54.0,690.0,31.0,0.0,0.0,1.0,1.0,1.0,1.0,0.0,1.0,467.0,409.0,762.0,114.0,24.0,2,1,PEDROSO DE MORAIS,420,,PINHEIROS,5420000,-23.5655802,-46.6895396,EM-3ª série,"289,6",279.0,277.1,556.1
184,ANTONIO ALVES CRUZ PROFESSOR,35003700,1.0,319.0,15.0,120.0,0.0,0.0,1.0,1.0,0.0,0.0,0.0,171.0,175.0,346.0,0.0,346.0,2,1,RUA ALVES GUIMARAES,1511,RUA,PINHEIROS,5410002,-23.5500071,-46.6825178,EM-3ª série,"312,9",292.1,300.2,592.3
185,ROLDAO LOPES DE BARROS PROFESSOR,35003724,108.0,330.0,10.0,10.0,0.0,0.0,1.0,0.0,0.0,0.0,1.0,361.0,427.0,517.0,271.0,0.0,2,1,RUA COLONIA DA GLORIA,580,RUA,JARDIM DA GLORIA,4113001,-23.5872239,-46.627441,EM-3ª série,"287,4",283.6,272.6,556.2
186,ARCY MAJOR,35003748,143.0,151.0,18.0,0.0,0.0,1.0,1.0,0.0,0.0,0.0,0.0,157.0,153.0,310.0,0.0,161.0,2,1,JOSE DE QUEIROS ARANHA DOUTOR,451,RUA,VILA MARIANA,4106062,-23.5787662,-46.6357,EM-3ª série,"322,5",298.0,302.8,600.8
187,MARIA JOSE,35003759,326.0,481.0,16.0,72.0,0.0,1.0,1.0,1.0,0.0,0.0,1.0,614.0,641.0,1138.0,117.0,0.0,2,1,RUA TREZE DE MAIO,267,,BELA VISTA,1327000,-23.5557508,-46.6463534,EM-3ª série,"269,7",265.8,261.9,527.7
188,COSTA MANSO MINISTRO,35003773,2.0,347.0,18.0,0.0,0.0,1.0,1.0,1.0,1.0,1.0,1.0,200.0,168.0,368.0,0.0,368.0,2,1,RUA JOAO CACHOEIRA,960,RUA,VILA NOVA CONCEICAO,4535003,-23.5882,-46.6768,EM-3ª série,287,280.8,286.3,567.1
189,FABIANO LOZANO MAESTRO,35003797,310.0,505.0,16.0,0.0,0.0,1.0,1.0,1.0,1.0,1.0,1.0,441.0,429.0,870.0,0.0,0.0,2,1,RUA HUMBERTO I,633,RUA,VILA MARIANA,4018031,-23.5858393,-46.6412478,EM-3ª série,"286,1",277.3,276.5,553.8
190,GODOFREDO FURTADO,35003839,171.0,100.0,16.0,0.0,0.0,0.0,1.0,1.0,1.0,1.0,1.0,157.0,131.0,288.0,0.0,113.0,2,1,RUA JOAO MOURA,727,RUA,JARDIM AMERICA,5412001,-23.5592648,-46.6785721,EM-3ª série,"276,6",273.9,267.8,541.7
191,CAETANO DE CAMPOS CONSOLACAO,35003852,249.0,415.0,10.0,0.0,0.0,1.0,1.0,0.0,1.0,1.0,1.0,397.0,416.0,697.0,116.0,408.0,2,1,RUA JOAO GUIMARAES ROSA,111,RUA,CONSOLACAO,1303030,-23.549612,-46.6471547,EM-3ª série,"302,2",284.8,286.5,571.3
192,MARTIM FRANCISCO,35003888,114.0,518.0,23.0,0.0,22.0,1.0,1.0,1.0,1.0,0.0,1.0,377.0,330.0,707.0,0.0,0.0,2,1,DOMINGOS FERNANDES,583,RUA,VILA NOVA CONCEICAO,4509011,-23.59247839,-46.67071375,EM-3ª série,"271,9",282.8,277.5,560.3
193,NAPOLEAO DE CARVALHO FREIRE PROFESSOR,35003924,162.0,583.0,13.0,2.0,0.0,1.0,1.0,1.0,1.0,0.0,1.0,407.0,412.0,819.0,0.0,17.0,2,1,RUA IRAUNA,815,RUA,INDIANOPOLIS,4518061,-23.6098963,-46.6722394,EM-3ª série,"288,8",291.3,285.8,577.1
194,OSWALDO ARANHA,35003931,320.0,341.0,41.0,0.0,0.0,1.0,1.0,0.0,1.0,0.0,0.0,349.0,332.0,681.0,0.0,344.0,2,1,AVENIDA PORTUGAL,859,AVENIDA,BROOKLIN PAULISTA,4559002,-23.6158458,-46.6818146,EM-3ª série,"301,7",287.1,287.4,574.5
195,MARIA EUGENIA MARTINS PROFESSORA,35004005,359.0,531.0,15.0,0.0,0.0,1.0,1.0,0.0,1.0,1.0,0.0,555.0,571.0,795.0,331.0,0.0,2,1,ALARICO FRANCO CAIUBI,651,RUA,JAGUARE,5330012,-23.54364,-46.74856,EM-3ª série,"265,1",254.8,257.8,512.6
196,GUIOMAR ROCHA RINALDI PROFESSORA,35004030,78.0,409.0,12.0,0.0,0.0,1.0,1.0,1.0,1.0,1.0,1.0,277.0,324.0,601.0,0.0,509.0,2,1,RUA DOM FRANCISCO CARDOSO AYRES,285,RUA,JARDIM CAMBARA,5560010,-23.5731179,-46.7424115,EM-3ª série,"256,5",265.5,252.5,518.0
197,ARCHITICLINO SANTOS PROFESSOR,35004066,319.0,242.0,32.0,0.0,0.0,1.0,1.0,0.0,1.0,0.0,1.0,275.0,310.0,585.0,0.0,239.0,2,1,RUA MAESTRO ITALO IZZO,110,RUA,PARQUE CONTINENTAL,5325200,-23.5416893,-46.759137,EM-3ª série,"278,3",271.7,268.9,540.5999999999999
198,EMYGDIO DE BARROS PROFESSOR,35004121,513.0,861.0,17.0,0.0,3.0,0.0,1.0,1.0,0.0,1.0,0.0,727.0,822.0,1380.0,169.0,0.0,2,1,AVENIDA NOSSA SENHORA DA ASSUNCAO,292,AVENIDA,VILA BUTANTA,5359000,-23.5732438,-46.7421591,EM-3ª série,"259,2",250.2,255.1,505.29999999999995
199,ALBERTO LEVY PROFESSOR,35004145,3.0,413.0,10.0,0.0,0.0,1.0,1.0,1.0,0.0,0.0,0.0,407.0,403.0,409.0,401.0,0.0,2,1,AVENIDA INDIANOPOLIS,1570,AVENIDA,INDIANOPOLIS,4062001,-23.6123115,-46.6514085,EM-3ª série,"289,5",270.3,268.3,538.6
200,ALBERTO TORRES,35004157,3.0,417.0,20.0,0.0,0.0,0.0,1.0,1.0,1.0,1.0,1.0,267.0,181.0,448.0,0.0,448.0,2,1,AVENIDA DOUTOR VITAL BRASIL,1260,AVENIDA,BUTANTA,5503000,-23.5686662,-46.7157021,EM-3ª série,"308,3",282.7,285.7,568.4
201,ANA ROSA DE ARAUJO DONA,35004169,377.0,487.0,13.0,0.0,0.0,1.0,1.0,1.0,0.0,0.0,1.0,462.0,435.0,897.0,0.0,9.0,2,1,RUA EDEN,100,RUA,VILA INAH,5619000,-23.5893855,-46.727187,EM-3ª série,"281,8",268.9,268.3,537.2
202,ANDRONICO DE MELLO PROFESSOR,35004170,3.0,376.0,9.0,0.0,0.0,1.0,1.0,1.0,0.0,1.0,0.0,212.0,214.0,426.0,0.0,426.0,2,1,RUA THEO DUTRA,33,RUA,JARDIM COLOMBO,5628000,-23.5974931,-46.7310577,EM-3ª série,"256,2",255.1,258.1,513.2
203,ADOLFO GORDO SENADOR,35004212,84.0,542.0,6.0,0.0,0.0,0.0,0.0,1.0,1.0,0.0,0.0,474.0,507.0,572.0,409.0,0.0,2,1,ARMANDO LOMBARDI DOM,223,RUA,VILA PROGREDIOR,5616010,-23.5873228,-46.7203446,EM-3ª série,"278,1",270.9,273.2,544.0999999999999
204,VIRGILIA RODRIGUES ALVES DE CARVALHO PINTO,35004224,3.0,208.0,0.0,15.0,9.0,1.0,1.0,1.0,0.0,0.0,0.0,108.0,129.0,237.0,0.0,237.0,2,1,RUA DOMINGOS BARBIERI,350,RUA,JARDIM PREVIDENCIA,5531060,-23.57681,-46.72052,EM-3ª série,"306,2",292.7,294.5,587.2
205,PEDRO FONSECA PROFESSOR,35004236,265.0,359.0,11.0,2.0,6.0,1.0,1.0,0.0,1.0,1.0,1.0,305.0,363.0,668.0,0.0,28.0,2,1,RUA RUBENS GRISOLIA,65,RUA,JARDIM MONTE KEMEL,5634150,-23.6061156,-46.7307234,EM-3ª série,"257,5",252.1,262.1,514.2
206,MURTINHO NOBRE DOUTOR,35004297,284.0,358.0,23.0,0.0,0.0,1.0,0.0,1.0,1.0,1.0,1.0,336.0,373.0,709.0,0.0,0.0,2,1,RUA OUVIDOR PORTUGAL,789,RUA,VILA MONUMENTO,1551000,-23.5742483,-46.6120993,EM-3ª série,303,294.6,288.7,583.3
207,ATALIBA DE OLIVEIRA PROFESSOR,35004339,5.0,1035.0,24.0,0.0,0.0,1.0,1.0,1.0,1.0,0.0,1.0,618.0,763.0,933.0,448.0,12.0,2,1,RUA SAO SILVESTRE,400,RUA,SAO JOAO CLIMACO,4255080,-23.6237598,-46.5947549,EM-3ª série,"268,7",255.3,254.8,510.1
208,ROOSEVELT PRESIDENTE,35004340,277.0,409.0,18.0,0.0,0.0,1.0,1.0,1.0,0.0,0.0,1.0,516.0,518.0,1034.0,0.0,1.0,2,1,RUA SAO JOAQUIM,320,RUA,LIBERDADE,1508000,-23.5619027,-46.6357095,EM-3ª série,"277,9",268.9,262.7,531.5999999999999
209,NOSSA SENHORA APARECIDA,35004418,373.0,493.0,0.0,0.0,0.0,1.0,1.0,1.0,1.0,1.0,1.0,832.0,860.0,1227.0,465.0,0.0,2,1,RUA ALVARO FRAGOSO,734,RUA,VILA CARIOCA,4223000,-23.5985739,-46.5907282,EM-3ª série,266,258.7,254.4,513.1
210,MANUELA LACERDA VERGUEIRO,35004431,400.0,586.0,0.0,148.0,0.0,0.0,1.0,0.0,1.0,1.0,1.0,881.0,868.0,1089.0,660.0,41.0,2,1,RUA TAMUATA,176,RUA,SAO JOAO CLIMACO,4255140,-23.6218971,-46.592902,EM-3ª série,"266,8",260.1,255.8,515.9000000000001
211,ALEXANDRE DE GUSMAO,35004479,6.0,1196.0,17.0,24.0,0.0,1.0,1.0,0.0,1.0,1.0,1.0,720.0,653.0,1065.0,308.0,1.0,2,1,RUA  CISPLATINA,298,RUA,IPIRANGA,4211040,-23.5883563,-46.6043325,EM-3ª série,"279,2",270.3,270.2,540.5
212,EURYDICE ZERBINI PROFESSORA,35004480,116.0,227.0,27.0,0.0,0.0,1.0,1.0,1.0,1.0,0.0,1.0,159.0,214.0,373.0,0.0,242.0,2,1,EPIACABA,547,RUA,PARQUE FONGARO,4257145,-23.6342228,-46.5890473,EM-3ª série,"278,1",259.0,258.6,517.6
213,GUALTER DA SILVA PROFESSOR,35004492,245.0,325.0,17.0,9.0,0.0,1.0,1.0,1.0,1.0,1.0,1.0,284.0,341.0,625.0,0.0,8.0,2,1,RUA ANATOLE FRANCE,76,RUA,VILA MOINHO VELHO,4283050,-23.6062632,-46.6030998,EM-3ª série,"271,8",258.3,255.4,513.7
214,TEOTONIO ALVES PEREIRA,35004510,274.0,117.0,15.0,0.0,0.0,0.0,1.0,0.0,1.0,1.0,1.0,215.0,182.0,397.0,0.0,113.0,2,1,RUA ARCIPRESTE EZEQUIAS,734,RUA,VILA SAO JOSE IPIRANGA,4271060,-23.5908988,-46.6197141,EM-3ª série,"306,3",292.2,300.6,592.8
215,RAUL CARDOSO DE ALMEIDA PROFESSOR,35004522,383.0,460.0,15.0,14.0,0.0,1.0,1.0,1.0,1.0,1.0,1.0,415.0,529.0,944.0,0.0,0.0,2,1,RUA NOSSA SENHORA DAS MERCES,1000,RUA,VILA DAS MERCES,4165011,-23.626392,-46.6067462,EM-3ª série,"289,3",268.1,270.5,538.6
216,RAUL FONSECA,35004546,366.0,483.0,16.0,0.0,0.0,1.0,1.0,1.0,1.0,0.0,1.0,465.0,461.0,926.0,0.0,20.0,2,1,AVENIDA INHAIBA,92,AVENIDA,SAUDE,4292050,-23.6129743,-46.6090472,EM-3ª série,268,264.5,260.3,524.8
217,LYGIA DE AZEVEDO SOUZA E SA PROFESSORA,35004595,154.0,137.0,12.0,0.0,0.0,1.0,1.0,1.0,0.0,1.0,1.0,159.0,154.0,313.0,0.0,148.0,2,1,RUA DOUTOR MAURICIO DE LACERDA,322,RUA,SAO JUDAS,4303191,-23.6257949,-46.6358485,EM-3ª série,"271,6",289.0,283.0,572.0
218,MARIA AUGUSTA DE MORAES NEVES PROFESSORA,35004613,624.0,583.0,10.0,37.0,0.0,1.0,1.0,1.0,1.0,1.0,1.0,766.0,811.0,1077.0,500.0,0.0,2,1,HUGO VITOR SILVA,508,RUA,AMERICANOPOLIS,4340040,-23.6677911,-46.6424938,EM-3ª série,"250,6",246.6,244.8,491.4
219,MARIA RIBEIRO GUIMARAES BUENO PROFESSORA,35004625,312.0,180.0,15.0,0.0,0.0,1.0,1.0,1.0,1.0,1.0,1.0,238.0,261.0,499.0,0.0,179.0,2,1,RUA VUTURUNA,190,RUA,VILA DO BOSQUE,4147080,-23.6203544,-46.6297467,EM-3ª série,"329,8",295.3,292.8,588.1
220,HELOISA CARNEIRO PROFESSORA,35004674,495.0,457.0,27.0,0.0,0.0,1.0,1.0,1.0,1.0,1.0,1.0,674.0,722.0,1032.0,364.0,14.0,2,1,RUA ANTONIO COVELLO,58,RUA,JARDIM JABAQUARA,4383070,-23.6601606,-46.6583674,EM-3ª série,"275,6",254.8,262.7,517.5
221,PEROLA BYINGTON DONA,35004686,260.0,157.0,13.0,0.0,0.0,0.0,1.0,0.0,1.0,1.0,1.0,199.0,226.0,425.0,0.0,133.0,2,1,RUA DOUTOR ALCIDES DE CAMPOS,150,RUA,AMERICANOPOLIS,4336160,-23.662804,-46.6419383,EM-3ª série,"259,2",255.4,251.4,506.8
222,ANGELO MENDES DE ALMEIDA DOUTOR,35004698,0.0,241.0,20.0,0.0,0.0,1.0,1.0,1.0,0.0,1.0,1.0,149.0,108.0,257.0,0.0,257.0,2,1,APACE,SN,RUA,JARDIM ORIENTAL,4347110,-23.6449726,-46.6468829,EM-3ª série,"309,6",311.3,305.1,616.4000000000001
223,CARLOS AUGUSTO DE FREITAS VILLALVA JUNIOR DOUTOR,35004704,7.0,1617.0,21.0,0.0,0.0,1.0,1.0,0.0,0.0,1.0,0.0,956.0,914.0,1476.0,394.0,2.0,2,1,AVENIDA ENGENHEIRO ARMANDO DE ARRUDA PEREIRA,506,AVENIDA,JABAQUARA,4308000,-23.6333774,-46.6441728,EM-3ª série,"283,5",281.9,274.7,556.5999999999999
224,JOAO AMOS COMENIUS,35004736,701.0,963.0,13.0,0.0,32.0,1.0,1.0,1.0,0.0,1.0,1.0,940.0,963.0,1299.0,604.0,0.0,2,1,ESTEVAO MENDONCA,439,AVENIDA,VILA SANTA CATARINA,4372050,-23.649783,-46.657611,EM-3ª série,"281,1",273.5,264.5,538.0
225,JULIO RIBEIRO,35004741,1.0,458.0,17.0,13.0,0.0,1.0,1.0,1.0,1.0,0.0,1.0,279.0,318.0,437.0,160.0,0.0,2,1,RUA DOUTOR NESTOR ALBERTO DE MACEDO,117,RUA,VILA MORAES,4154020,-23.6257219,-46.6198572,EM-3ª série,"262,9",254.4,258.4,512.8
226,ANTONIO ALCANTARA MACHADO,35004777,189.0,480.0,22.0,21.0,0.0,1.0,1.0,1.0,1.0,1.0,1.0,500.0,462.0,654.0,308.0,0.0,2,1,RUA  AMERICO RIBEIRO,97,RUA,VILA GUMERCINDO,4130050,-23.6041346,-46.6164191,EM-3ª série,"278,3",263.5,269.3,532.8
227,BRASILIO MACHADO,35004790,3.0,225.0,8.0,0.0,0.0,0.0,1.0,0.0,1.0,0.0,1.0,121.0,122.0,243.0,0.0,243.0,2,1,RUA AFONSO CELSO,311,RUA,VILA MARIANA,4119001,-23.5946978,-46.6348681,EM-3ª série,"288,1",280.7,273.1,553.8
228,DOMINGOS QUIRINO FERREIRA CORONEL,35004807,397.0,593.0,13.0,0.0,0.0,1.0,1.0,1.0,1.0,1.0,1.0,657.0,679.0,960.0,376.0,0.0,2,1,CAFE,681,AVENIDA,VILA GUARANI Z SUL,4311001,-23.6323822,-46.6367809,EM-3ª série,255,259.8,255.9,515.7
229,JOSE VICENTE DE AZEVEDO CONDE,35004820,5.0,276.0,15.0,0.0,0.0,0.0,1.0,1.0,1.0,0.0,1.0,164.0,143.0,307.0,0.0,307.0,2,1,GUARAREMA,365,RUA,BOSQUE DA SAUDE,4136030,-23.6092595,-46.6257043,EM-3ª série,"295,3",289.1,298.1,587.2
230,RUI BLOEM,35004832,7.0,954.0,22.0,0.0,0.0,1.0,0.0,1.0,1.0,0.0,1.0,568.0,497.0,1065.0,0.0,1065.0,2,1,RUA DOS BOGARIS,244,RUA,MIRANDOPOLIS,4047020,-23.61064216,-46.6443489,EM-3ª série,"284,6",280.4,280.7,561.0999999999999
231,LEONOR QUADROS,35004868,728.0,605.0,20.0,0.0,0.0,0.0,1.0,0.0,1.0,1.0,1.0,693.0,765.0,1098.0,360.0,0.0,2,1,BALTAZAR GOMES DE ALARCAO,SN,RUA,JARDIM MIRIAM,4417270,-23.6810298,-46.6364655,EM-3ª série,"254,2",251.7,242.8,494.5
232,JOAO SILVA PROFESSOR,35004923,872.0,682.0,27.0,0.0,0.0,1.0,1.0,1.0,0.0,1.0,1.0,836.0,852.0,1097.0,591.0,0.0,2,1,ABILIO CESAR,243,,JARDIM SORAIA,5881020,-23.6804554,-46.7765578,EM-3ª série,"265,8",260.7,261.4,522.0999999999999
233,NEYDE APPARECIDA SOLLITTO PROFESSORA,35004947,532.0,489.0,17.0,0.0,0.0,1.0,1.0,0.0,1.0,1.0,1.0,730.0,766.0,1496.0,0.0,0.0,2,1,JOSE MARIA PINTO ZILLI,696,RUA,JARDIM DAS PALMAS,5749300,-23.6209015,-46.7463031,EM-3ª série,"279,6",257.2,258.3,515.5
234,MARIA PETRONILA LIMEIRA DOS MILAGRES MONTEIRO PROFESSORA,35004984,543.0,654.0,26.0,0.0,0.0,0.0,1.0,1.0,1.0,0.0,1.0,647.0,646.0,1191.0,102.0,3.0,2,1,MARIO LOPES LEAO,1050,AVENIDA,SANTO AMARO,4754010,-23.651426,-46.7155313,EM-3ª série,"278,2",273.2,266.3,539.5
235,DAVINA AGUIAR DIAS PROFESSORA,35004996,161.0,168.0,0.0,0.0,0.0,1.0,1.0,1.0,0.0,0.0,1.0,354.0,348.0,702.0,0.0,3.0,2,1,FRANCISCO DE ABREU,SN,,JARDIM IMBE,5863100,-23.67713277,-46.76705439,EM-3ª série,"276,7",265.6,268.3,533.9000000000001
236,BEATRIZ DE QUADROS LEME PROFESSORA,35005009,493.0,634.0,13.0,0.0,0.0,1.0,1.0,0.0,1.0,0.0,1.0,598.0,641.0,939.0,300.0,9.0,2,1,RUA PROFESSOR GASTAO RAMOS,03,RUA,PARQUE FERNANDA,5888160,-23.6749363,-46.7902074,EM-3ª série,"287,9",285.0,282.4,567.4
237,LEOPOLDO SANTANA PROFESSOR,35005010,8.0,1586.0,3.0,0.0,0.0,1.0,1.0,0.0,0.0,0.0,0.0,975.0,863.0,1383.0,455.0,21.0,2,1,RUA MANOEL DUARTE OLIVEIRA,151,RUA,CAPAO REDONDO,5859100,-23.6686876,-46.7669187,EM-3ª série,"278,1",274.9,266.7,541.5999999999999
238,MARTINS PENA,35005034,704.0,772.0,15.0,0.0,128.0,1.0,1.0,0.0,1.0,1.0,1.0,802.0,853.0,1151.0,504.0,0.0,2,1,RUA PROFESSOR PAULO MANGABEIRA ALBERNAZ,150,RUA,AMERICANOPOLIS,4405030,-23.6677075,-46.6562613,EM-3ª série,"266,1",260.0,255.1,515.1
239,BENTO PEREIRA DA ROCHA PROFESSOR,35005058,257.0,298.0,18.0,0.0,0.0,1.0,1.0,1.0,1.0,1.0,1.0,289.0,303.0,592.0,0.0,0.0,2,1,GEORGE BENDA,80,RUA,JARDIM RUBILENE,4475100,-23.7038695,-46.6337734,EM-3ª série,"257,4",260.6,257.0,517.6
240,ZULMIRA CAVALHEIRO FAUSTINO DONA,35005061,326.0,298.0,17.0,0.0,0.0,1.0,1.0,1.0,1.0,0.0,1.0,463.0,559.0,1022.0,0.0,27.0,2,1,LUIZ GRASSMANN,216,RUA,JARDIM MIRANTE,5801050,-23.6457033,-46.7336008,EM-3ª série,"274,1",275.4,263.8,539.2
241,EUSEBIO DE PAULA MARCONDES PROFESSOR,35005071,246.0,326.0,13.0,0.0,0.0,1.0,1.0,1.0,1.0,0.0,0.0,458.0,422.0,696.0,184.0,0.0,2,1,DOMINGAS GALLETERI BLOTTA,45,RUA,VILA CAMPO GRANDE,4455360,-23.6823633,-46.67722,EM-3ª série,"286,1",285.0,278.9,563.9
242,JOAQUIM ADOLFO ARAUJO PROFESSOR,35005083,260.0,474.0,12.0,0.0,0.0,0.0,1.0,1.0,0.0,0.0,0.0,401.0,444.0,703.0,142.0,2.0,2,1,FRANCISCO MADERO,16,RUA,VILA ARRIETE,4445090,-23.6828542,-46.683275,EM-3ª série,"270,8",263.1,255.5,518.6
243,HUGO LACORTE VITALE DEPUTADO,35005095,354.0,584.0,10.0,0.0,0.0,1.0,1.0,1.0,0.0,0.0,0.0,613.0,624.0,977.0,260.0,0.0,2,1,CANTANHEDE,190,RUA,PIRAJUSSARA,5790150,-23.6438851,-46.785159,EM-3ª série,"259,8",260.7,254.7,515.4
244,MEXICO,35005113,526.0,938.0,13.0,0.0,0.0,1.0,1.0,1.0,1.0,0.0,1.0,822.0,836.0,1351.0,307.0,36.0,2,1,LEONEL DA GAMA BELES,82,RUA,VILA JOANIZA,4403360,-23.6733549,-46.6594297,EM-3ª série,"264,1",259.7,257.2,516.9
245,ZENAIDE LOPES DE OLIVEIRA GODOY PROFESSORA,35005137,686.0,723.0,11.0,0.0,0.0,1.0,1.0,1.0,1.0,1.0,1.0,772.0,785.0,1198.0,359.0,0.0,2,1,CELSO DOS SANTOS,375,AVENIDA,VILA CONSTANCA,4658240,-23.6666955,-46.6696283,EM-3ª série,"271,3",259.8,252.7,512.5
246,JOAO EVANGELISTA COSTA PROFESSOR,35005149,613.0,550.0,17.0,0.0,0.0,1.0,1.0,1.0,0.0,0.0,0.0,648.0,579.0,1227.0,0.0,0.0,2,1,CUPECE,2672,AVENIDA,JARDIM PRUDENCIA,4366000,-23.66492161,-46.65995791,EM-3ª série,"276,3",268.2,259.0,527.2
247,ALBERTO CONTE PROFESSOR,35005162,2.0,1364.0,24.0,0.0,0.0,1.0,1.0,1.0,0.0,0.0,0.0,901.0,733.0,1296.0,338.0,4.0,2,1,MARIO LOPES LEAO,120,AVENIDA,SANTO AMARO,4754010,-23.6502464,-46.70722,EM-3ª série,"295,7",287.9,285.2,573.0999999999999
248,LUIZ GONZAGA PINTO E SILVA PROFESSOR,35005186,413.0,565.0,15.0,9.0,0.0,1.0,1.0,1.0,1.0,1.0,1.0,496.0,557.0,1053.0,0.0,45.0,2,1,GERALDO FRAGA DE OLIVEIRA,324,RUA,JARDIM SAO LUIS,5843000,-23.6530522,-46.73743385,EM-3ª série,"277,5",263.2,262.1,525.3
249,PLINIO NEGRAO,35005198,266.0,578.0,2.0,0.0,16.0,0.0,1.0,1.0,0.0,1.0,0.0,589.0,545.0,870.0,264.0,2.0,2,1,BRAGANCA PAULISTA,575,RUA,VILA CRUZEIRO,4727001,-23.642132,-46.7155349,EM-3ª série,"297,5",289.4,282.3,571.7
250,KENNEDY PRESIDENTE,35005204,9.0,1011.0,18.0,52.0,0.0,1.0,1.0,1.0,1.0,0.0,1.0,745.0,642.0,898.0,489.0,2.0,2,1,FRANCISCO PEIXOTO,54,RUA,VILA PIRAJUSSARA,5786110,-23.6348767,-46.7709402,EM-3ª série,"263,9",272.4,266.7,539.0999999999999
251,ISALTINO DE MELLO PROFESSOR,35005216,3.0,822.0,14.0,25.0,0.0,0.0,0.0,1.0,1.0,0.0,1.0,502.0,505.0,729.0,278.0,1.0,2,1,TONINHAS,73,RUA,VILA GEA,4691040,-23.6747803,-46.6873815,EM-3ª série,"269,9",264.5,257.7,522.2
252,SABOIA DE MEDEIROS PADRE EE,35005228,1.0,338.0,10.0,0.0,0.0,0.0,0.0,1.0,0.0,0.0,0.0,269.0,324.0,359.0,234.0,2.0,2,1,AMERICO BRASILIENSE,1297,RUA,CHACARA SANTO ANTONIO ZONA SUL,4715002,-23.6330283,-46.6998527,EM-3ª série,"279,3",279.4,278.9,558.3
253,PAULO OCTAVIO DE AZEVEDO PROFESSOR,35005241,485.0,342.0,16.0,72.0,71.0,1.0,1.0,1.0,1.0,0.0,1.0,705.0,720.0,1150.0,275.0,8.0,2,1,ANTONIO VIEIRA MISTURA,440,RUA,JARDIM SANTA EDWIGES CAPELA DO SOCORRO,4913110,-23.6814862,-46.7395413,EM-3ª série,"248,6",246.7,244.3,491.0
254,ORLANDO MENDES DE MORAES PROFESSOR,35005265,349.0,953.0,20.0,2.0,0.0,1.0,1.0,1.0,1.0,0.0,0.0,850.0,879.0,1176.0,553.0,0.0,2,1,BARONESA,100,,PARQUE BOLOGNE,4941175,-23.7185724,-46.782715,EM-3ª série,"260,3",262.2,253.5,515.7
255,BEATRIZ LOPES PROFA,35005277,1.0,420.0,6.0,0.0,0.0,1.0,1.0,1.0,0.0,1.0,1.0,435.0,396.0,520.0,311.0,6.0,2,1,RUA GUARUVA,384,,CIDADE DUTRA,4807030,-23.71150795,-46.70074199,EM-3ª série,"279,8",273.6,270.3,543.9000000000001
256,ALBERTO SALOTTI PROF EE,35005289,9.0,1205.0,21.0,21.0,19.0,1.0,1.0,1.0,1.0,0.0,1.0,687.0,633.0,1062.0,258.0,100.0,2,1,CARLOS OBERHUBER,90,AVENIDA,JARDIM FLORESTA,4836130,-23.74029899,-46.70631472,EM-3ª série,"294,1",282.3,285.0,567.3
257,LEVI CARNEIRO,35005290,476.0,517.0,13.0,10.0,0.0,1.0,1.0,1.0,1.0,1.0,1.0,741.0,711.0,835.0,617.0,3.0,2,1,AVENIDA ANTONIO CARLOS BENJAMIN DOS SANTOS,2882,AVENIDA,JARDIM MYRNA,4856070,-23.77314167,-46.7065,EM-3ª série,"242,2",247.9,254.1,502.0
258,PAULINO NUNES ESPOSO,35005307,480.0,721.0,16.0,10.0,0.0,1.0,1.0,1.0,1.0,0.0,1.0,765.0,701.0,1061.0,405.0,35.0,2,1,SADAMU INOUE,365,AVENIDA,JARDIM CASA GRANDE,4865005,-23.7765973,-46.7224161,EM-3ª série,"268,1",272.3,263.3,535.6
259,PRISCILIANA DUARTE DE ALMEIDA DONA,35005320,4.0,607.0,0.0,110.0,0.0,0.0,1.0,1.0,1.0,0.0,0.0,545.0,565.0,669.0,441.0,19.0,2,1,SADAMU INOUE,6820,AVENIDA,JARDIM CASA GRANDE,4865005,-23.82689367,-46.73246822,EM-3ª série,279,262.2,257.3,519.5
260,HILTON REIS SANTOS PROF,35005344,422.0,318.0,22.0,0.0,0.0,1.0,1.0,0.0,1.0,1.0,1.0,625.0,616.0,1241.0,0.0,0.0,2,1,MARCILAC ENGENHEIRO,8029,"KM 45,8",EMBURA,4893000,-23.8783551,-46.7401409,EM-3ª série,"282,8",273.1,276.9,550.0
261,DUARTE LEOPOLDO E SILVA DOM,35005356,224.0,596.0,10.0,70.0,16.0,1.0,1.0,1.0,1.0,0.0,1.0,458.0,523.0,856.0,125.0,42.0,2,1,PINEDO,577,AVENIDA,SOCORRO,4764001,-23.670526,-46.7146694,EM-3ª série,"286,3",275.8,276.8,552.6
262,JOSE VIEIRA DE MORAES PROF,35005368,11.0,1538.0,20.0,0.0,0.0,1.0,1.0,1.0,1.0,0.0,1.0,1028.0,766.0,1277.0,517.0,90.0,2,1,FREDERICO RENE DE JAEGHER,206,RUA,RIO BONITO,4826000,-23.7187995,-46.7010711,EM-3ª série,287,286.1,280.9,567.0
263,JOSE GERALDO DE LIMA PROF EE,35005373,167.0,291.0,17.0,8.0,35.0,0.0,1.0,1.0,1.0,1.0,1.0,245.0,229.0,474.0,0.0,299.0,2,1,ANTONIO MARIANO,254,RUA,JARDIM IPANEMA ZONA SUL,4784000,-23.6885241,-46.7084051,EM-3ª série,"301,5",287.5,287.9,575.4
264,ADOLFO CASAIS MONTEIRO PROF,35005381,454.0,361.0,0.0,0.0,0.0,0.0,1.0,1.0,0.0,0.0,0.0,559.0,554.0,877.0,236.0,13.0,2,1,MANUEL ALVES SOARES,659,AVENIDA,PARQUE COLONIAL,4821270,-23.7221827,-46.6880842,EM-3ª série,"269,3",275.4,272.2,547.5999999999999
265,JUVENTINA MARCONDES DOMINGUES DE CASTRO PROFA,35005393,469.0,323.0,17.0,0.0,1.0,1.0,1.0,1.0,1.0,1.0,1.0,668.0,724.0,1084.0,308.0,0.0,2,1,HENRIQUE MUZZIO,233,RUA,JARDIM VARGINHA,4857040,-23.78629078,-46.6846561,EM-3ª série,"258,6",252.1,248.3,500.4
266,ALFREDO VIANELLO GREGORIO COMENDADOR,35005400,418.0,280.0,14.0,0.0,0.0,0.0,1.0,1.0,1.0,0.0,1.0,689.0,739.0,1016.0,412.0,0.0,2,1,RUA FELIPE DE VERAS,SN,RUA,JD SAO LUIS,5818260,-23.6650908,-46.7310871,EM-3ª série,271,260.1,272.6,532.7
267,AMELIA KERR NOGUEIRA PROFESSORA,35005411,883.0,826.0,10.0,0.0,10.0,1.0,1.0,1.0,1.0,1.0,1.0,1036.0,1090.0,1399.0,727.0,0.0,2,1,AVENIDA  DOS FUNCIONARIOS PUBLICOS,1355,AVENIDA,JARDIM HORIZONTE AZUL,4962000,-23.74086273,-46.78199966,EM-3ª série,"273,9",269.4,263.9,533.3
268,VICENTE LEPORACE,35005435,351.0,542.0,8.0,0.0,0.0,1.0,1.0,1.0,1.0,1.0,1.0,545.0,579.0,911.0,213.0,8.0,2,1,JOAO ALVES TORRES,555,RUA,JARDIM DAS FLORES,4904120,-23.6739323,-46.7397492,EM-3ª série,"267,8",254.7,255.8,510.5
269,MARIA AMELIA BRAZ PROFA,35005447,269.0,219.0,16.0,0.0,0.0,1.0,1.0,1.0,1.0,0.0,0.0,336.0,333.0,487.0,182.0,6.0,2,1,AMADOR ARRAIS FREI,100,RUA,JARDIM SAO RAFAEL,4860050,-23.76068363,-46.71716865,EM-3ª série,"266,2",263.4,259.6,523.0
270,HERBERT BALDUS,35005459,436.0,477.0,18.0,0.0,0.0,1.0,1.0,0.0,0.0,1.0,0.0,718.0,836.0,1093.0,461.0,0.0,2,1,CANCAO DA TERRA,100,RUA,JARDIM SAO BERNARDO,4844560,-23.7592305,-46.70449138,EM-3ª série,"268,2",270.1,269.0,539.1
271,SINHA PANTOJA,35005472,121.0,138.0,22.0,0.0,0.0,1.0,1.0,1.0,1.0,0.0,1.0,240.0,273.0,513.0,0.0,0.0,2,1,SIMAO DE LEMOS,SN,RUA,RECANTO SANTO ANTONIO,5816220,-23.6677645,-46.7407509,EM-3ª série,"280,5",281.9,258.7,540.5999999999999
272,JOAO BATISTA DE CARVALHO MONSENHOR,35005484,273.0,493.0,19.0,4.0,0.0,1.0,1.0,1.0,1.0,1.0,1.0,566.0,589.0,928.0,227.0,0.0,2,1,CRISTIANIA,13,,JARDIM CRIS,5834090,-23.67131967,-46.75461916,EM-3ª série,"252,9",262.4,261.5,523.9
273,FRANCISCO ANTONIO MARTINS JUNIOR PROFESSOR,35035592,382.0,283.0,5.0,0.0,0.0,0.0,0.0,0.0,0.0,0.0,1.0,505.0,548.0,837.0,216.0,0.0,2,1,ROCHA MEDRANO,SN,RUA,JARDIM SAO BENTO NOVO,5881270,-23.6818034,-46.7808778,EM-3ª série,"237,6",241.4,242.9,484.3
274,HUMBERTO ALFREDO PUCCA PROFESSOR,35035609,391.0,275.0,18.0,0.0,0.0,1.0,1.0,1.0,1.0,1.0,1.0,653.0,669.0,1111.0,211.0,0.0,2,1,MANDIRA,120,RUA,JARDIM FRATERNIDADE,5870150,-23.679711,-46.7732815,EM-3ª série,"250,2",242.0,245.2,487.2
275,RENATA GRAZIANO DE OLIVEIRA PRADO PROFESSORA,35035610,532.0,488.0,19.0,3.0,80.0,1.0,1.0,1.0,0.0,1.0,1.0,548.0,565.0,908.0,205.0,25.0,2,1,ARNALDO DANIEL,100,RUA,JARDIM GUARUJA,5877150,-23.6954077,-46.7895455,EM-3ª série,"272,4",263.8,260.5,524.3
276,OCTALLES MARCONDES FERREIRA,35035622,614.0,434.0,12.0,0.0,0.0,1.0,1.0,1.0,1.0,1.0,1.0,534.0,589.0,1123.0,0.0,26.0,2,1,DANCA DE ANITRA,1,RUA,JARDIM VAZ DE LIMA,5833080,-23.66757558,-46.759169,EM-3ª série,"275,9",271.3,261.1,532.4000000000001
277,PERILLIER MADEMOISELLE,35035661,383.0,397.0,14.0,72.0,0.0,1.0,1.0,1.0,1.0,1.0,1.0,829.0,783.0,943.0,669.0,1.0,2,1,CAROLINA MICHAELIS,138,RUA,JARDIM DAS IMBUIAS,4829170,-23.72954667,-46.70824,EM-3ª série,"279,6",265.7,252.5,518.2
278,EULALIA SILVA PROFESSORA,35036274,416.0,294.0,18.0,0.0,0.0,0.0,1.0,0.0,1.0,1.0,1.0,677.0,724.0,931.0,470.0,0.0,2,1,AMARO ANTONIO DE ARAUJO,337,RUA,JARDIM SANTA MARGARIDA,4931030,-23.6797066,-46.7549791,EM-3ª série,"250,1",243.2,248.1,491.29999999999995
279,LAURO PEREIRA TRAVASSOS PROFESSOR DOUTOR,35036286,402.0,632.0,13.0,0.0,0.0,1.0,1.0,1.0,0.0,0.0,1.0,677.0,710.0,929.0,458.0,0.0,2,1,RUA FREI FRANCISCO FERREIRA,128,RUA,VILA MISSIONARIA,4430180,-23.6885848,-46.6522112,EM-3ª série,"256,3",249.7,246.5,496.2
280,JOAO SUSSUMU HIRATA DEPUTADO,35036298,260.0,103.0,22.0,0.0,0.0,1.0,1.0,1.0,1.0,0.0,1.0,184.0,186.0,370.0,0.0,72.0,2,1,RUA COMENDADOR ANTUNES DOS SANTOS,936,RUA,CAPAO REDONDO,5861260,-23.67066198,-46.76469689,EM-3ª série,"285,2",292.5,282.1,574.6
281,GENESIO DE ALMEIDA MOURA DOUTOR,35036444,486.0,413.0,16.0,0.0,0.0,1.0,1.0,0.0,1.0,0.0,0.0,808.0,814.0,1207.0,415.0,0.0,2,1,DOMINGOS AREVALO,862,RUA,JARDIM DAMASCENO,2879070,-23.44686,-46.69603,EM-3ª série,"238,9",231.4,243.2,474.6
282,MIGUEL OLIVA FEITOSA PROFESSOR,35036456,386.0,410.0,16.0,0.0,0.0,1.0,1.0,1.0,0.0,1.0,1.0,388.0,484.0,616.0,256.0,8.0,2,1,TARCON,479,JARDIM ADELFIORE,JARDIM ADELFIORE,5223070,-23.4088571,-46.7417033,EM-3ª série,"238,4",253.5,248.0,501.5
283,HONORIO MONTEIRO DOUTOR,35036705,510.0,366.0,4.0,0.0,0.0,1.0,1.0,1.0,0.0,0.0,0.0,933.0,925.0,1415.0,443.0,0.0,2,1,MAGONDI,80,TRAVESSA,VILA CALU,4961150,-23.73592502,-46.78951049,EM-3ª série,"259,2",250.1,251.0,501.1
284,CARLOS DE MORAES ANDRADE PROF,35036729,342.0,460.0,10.0,0.0,0.0,1.0,1.0,1.0,1.0,0.0,1.0,521.0,557.0,821.0,257.0,2.0,2,1,BELMIRA MARIN DONA,2440,AVENIDA,PARQUE BRASIL,4846000,-23.750673,-46.6891614,EM-3ª série,"274,9",273.9,264.3,538.2
285,CARLOS AYRES PROF,35036730,424.0,813.0,17.0,0.0,0.0,0.0,1.0,1.0,1.0,0.0,1.0,849.0,848.0,1154.0,543.0,10.0,2,1,BELMIRA MARIN DONA,595,AVENIDA,PARQUE BRASIL,4846010,-23.7359956,-46.6940246,EM-3ª série,"282,1",279.4,268.0,547.4
286,GIULIO DAVID LEONE PROF,35036742,349.0,390.0,0.0,38.0,0.0,0.0,1.0,1.0,0.0,1.0,1.0,395.0,429.0,824.0,0.0,8.0,2,1,RIBEIRA DO VOUGA,91,RUA,JARDIM PRESIDENTE,4830180,-23.7337966,-46.7020458,EM-3ª série,"261,9",259.4,263.9,523.3
287,MIGUEL KRUSE DOM,35036754,519.0,530.0,10.0,0.0,0.0,1.0,1.0,0.0,0.0,1.0,1.0,532.0,574.0,1106.0,0.0,536.0,2,1,RUA SAO JOSE DO CAMPESTRE,30,RUA,JARDIM DANFER,3728000,-23.5026927,-46.50657,EM-3ª série,"273,7",268.9,267.8,536.7
288,FRANCISCO MESQUITA JORNALISTA,35036766,435.0,361.0,1.0,0.0,5.0,1.0,1.0,1.0,1.0,0.0,0.0,837.0,814.0,1111.0,540.0,0.0,2,1,WENCESLAU GUIMARAES,5,RUA,PARQUE CISPER,3823000,-23.4889485,-46.492527,EM-3ª série,"244,5",251.0,240.8,491.8
289,PAULO SARASATE GOVERNADOR,35036812,287.0,576.0,13.0,0.0,0.0,1.0,1.0,1.0,1.0,0.0,0.0,454.0,475.0,929.0,0.0,0.0,2,1,INACIO PINTO LIMA,199,GUAIANASES,CONJUNTO RESIDENCIAL PRESTES MAIA,8490020,-23.56652037,-46.40724839,EM-3ª série,"275,7",259.8,261.1,520.9000000000001
290,GUILHERME DE ALMEIDA,35036821,155.0,687.0,17.0,0.0,0.0,0.0,1.0,0.0,1.0,1.0,0.0,490.0,485.0,719.0,256.0,0.0,2,1,PARADA PINTO,2355,AVENIDA,VILA NOVA CACHOEIRINHA,2611003,-23.469409,-46.6491691,EM-3ª série,"273,4",268.5,266.7,535.2
291,MANUEL BANDEIRA,35036959,398.0,954.0,15.0,0.0,0.0,1.0,1.0,1.0,0.0,1.0,0.0,818.0,755.0,1075.0,498.0,1.0,2,1,JULIO CESAR LEAL,15,RUA,VILA PERUS,5208000,-23.4111119,-46.7567442,EM-3ª série,"258,3",251.6,253.1,504.7
292,MOZART TAVARES DE LIMA PROFESSOR,35036961,498.0,605.0,19.0,0.0,0.0,0.0,1.0,1.0,1.0,1.0,0.0,938.0,920.0,1238.0,620.0,0.0,2,1,MARCOS GONCALVES CORREA,21,RUA,JARDIM VILA CARRAO,8340320,-23.6173953,-46.4574034,EM-3ª série,"235,8",243.8,240.4,484.20000000000005
293,BRANCA CASTRO CANTO E MELO PROFESSORA,35036973,216.0,297.0,17.0,1.0,0.0,1.0,1.0,1.0,0.0,0.0,0.0,264.0,276.0,540.0,0.0,0.0,2,1,COSTA BARROS,2521,RUA,SITIO PINHEIRINHO,3210001,-23.6010617,-46.5434983,EM-3ª série,"280,2",288.1,277.3,565.4000000000001
294,GERALDO CAMPOS MOREIRA PROFESSOR DOUTOR,35037011,409.0,593.0,0.0,15.0,0.0,1.0,1.0,1.0,0.0,0.0,1.0,668.0,674.0,1014.0,328.0,0.0,2,1,MUTUIPE,10,RUA,PARQUE CISPER,3819090,-23.4974187,-46.4977728,EM-3ª série,"265,6",261.5,258.8,520.3
295,HECKEL TAVARES,35037023,459.0,395.0,17.0,6.0,0.0,1.0,1.0,1.0,1.0,0.0,1.0,452.0,451.0,903.0,0.0,385.0,2,1,JOSE ARTUR NOVA DOUTOR,2737,AVENIDA,PARQUE PAULISTANO,8090000,-23.4748273,-46.4247811,EM-3ª série,242,246.9,247.3,494.20000000000005
296,ASTROGILDO ARRUDA PROF,35037035,5.0,324.0,7.0,0.0,0.0,0.0,1.0,0.0,1.0,1.0,0.0,194.0,152.0,346.0,0.0,346.0,2,1,DOMINGOS DO SACRAMENTO,275,RUA,VILA CAROLINA,8040130,-23.5057853,-46.4457185,EM-3ª série,"311,7",297.4,297.6,595.0
297,JOAQUIM EUGENIO LIMA NETO,35037072,377.0,272.0,8.0,5.0,0.0,1.0,1.0,1.0,0.0,1.0,0.0,660.0,724.0,1165.0,219.0,0.0,2,1,CHAPADA DIAMANTINA,521,RUA,LAJEADO,8450150,-23.5438932,-46.4021461,EM-3ª série,"277,2",247.0,242.6,489.6
298,ERNESTINA DEL BUONO TRAMA PROFESSORA,35037084,219.0,458.0,25.0,1.0,0.0,1.0,1.0,0.0,1.0,0.0,0.0,352.0,393.0,745.0,0.0,0.0,2,1,FELICIANO DE MENDONCA,418,RUA,JARDIM SAO PAULOZONA LESTE,8460365,-23.5531223,-46.3989794,EM-3ª série,"272,8",262.9,260.5,523.4
299,COSME DE FARIA MAJOR,35037096,560.0,667.0,17.0,0.0,0.0,1.0,1.0,1.0,0.0,0.0,1.0,620.0,672.0,1147.0,145.0,1.0,2,1,ANIBAL THOMAZ GOMES,87,RUA,JARDIM NOVA GUAIANAZES,8431191,-23.5385885,-46.419072,EM-3ª série,"256,8",247.0,249.8,496.8
300,MARTIN EGIDIO DAMY,35037102,1.0,407.0,26.0,0.0,0.0,1.0,1.0,1.0,1.0,0.0,0.0,371.0,334.0,477.0,228.0,0.0,2,1,PAULO GARCIA AQUILINE,406,RUA,BRASILANDIA,2844120,-23.4700805,-46.6863137,EM-3ª série,271,261.7,255.7,517.4
301,TIDE SETUBAL,35037345,378.0,429.0,16.0,0.0,0.0,1.0,1.0,1.0,0.0,0.0,0.0,404.0,460.0,864.0,0.0,0.0,2,1,JAIME BARCELOS,535,RUA,VILA JACUI,8060200,-23.50107,-46.4484715,EM-3ª série,"263,8",278.4,268.5,546.9
302,HENRIQUE SMITH BAYMA DR,35037357,485.0,384.0,0.0,0.0,0.0,0.0,1.0,0.0,1.0,0.0,1.0,724.0,783.0,1146.0,361.0,0.0,2,1,SALSA PARRILHA,SN,RUA,JARDIM MAIA,8180310,-23.4867999,-46.4100419,EM-3ª série,"242,6",252.1,254.9,507.0
303,FRANCISCO DA COSTA GUEDES,35037370,484.0,427.0,14.0,15.0,16.0,1.0,1.0,1.0,1.0,0.0,1.0,490.0,498.0,919.0,69.0,7.0,2,1,AVENIDA DAS CEREJEIRAS,2435,AVENIDA,JARDIM JAPAO,2124002,-23.501066,-46.5731874,EM-3ª série,"274,3",269.0,259.2,528.2
304,ELZA SARAIVA MONTEIRO PROFA,35037382,458.0,638.0,35.0,0.0,0.0,1.0,1.0,1.0,1.0,0.0,1.0,844.0,854.0,1174.0,524.0,12.0,2,1,AVENIDA MARIANA CALIGIORI RONCHETTI,1200,AVENIDA,JARDIM PERI,2650000,-23.4579231,-46.6599926,EM-3ª série,240,244.1,240.4,484.5
305,LOURIVAL GOMES MACHADO PROFESSOR,35037424,109.0,601.0,16.0,0.0,0.0,1.0,1.0,0.0,0.0,0.0,1.0,392.0,435.0,827.0,0.0,0.0,2,1,ESTRADA DE SANTO AMARO,55,ESTRADA,JARDIM EDUCANDARIO,5544000,-23.5934,-46.8028117,EM-3ª série,"258,4",254.2,256.4,510.59999999999997
306,ALMEIDA JUNIOR PROFESSOR,35037436,243.0,578.0,11.0,0.0,0.0,1.0,1.0,1.0,1.0,1.0,1.0,553.0,613.0,785.0,381.0,33.0,2,1,AVENIDA ENGENHEIRO HEITOR ANTONIO EIRAS GARCIA,1874,AVENIDA,JARDIM MARIA LUIZA,5588001,-23.58195739,-46.74995924,EM-3ª série,"258,8",254.1,245.2,499.29999999999995
307,LAERTE RAMOS DE CARVALHO PROF DR,35037448,362.0,603.0,18.0,0.0,0.0,1.0,1.0,1.0,1.0,0.0,0.0,525.0,561.0,964.0,122.0,65.0,2,1,ANIBAL DOS ANJOS CARVALHO,5,RUA,VILA SANTA MARIA,4810050,-23.71239173,-46.69496671,EM-3ª série,"302,7",294.3,290.9,585.2
308,LUIZ SIMIONI SOBRINHO PROFESSOR,35037459,450.0,516.0,18.0,12.0,36.0,1.0,1.0,1.0,0.0,1.0,1.0,574.0,610.0,981.0,203.0,1.0,2,1,FRANCISCO LOPES PINTO,282,RUA,JARDIM PRUDENCIA,4649110,-23.6551427,-46.6760165,EM-3ª série,"290,3",284.9,276.6,561.5
309,MESSIAS FREIRE PROFESSOR,35037461,388.0,344.0,8.0,0.0,0.0,1.0,1.0,1.0,0.0,1.0,0.0,744.0,768.0,988.0,524.0,1.0,2,1,IBI,18,RUA,JARDIM LEONIDAS MOREIRA,5792070,-23.6432578,-46.7761261,EM-3ª série,"248,6",251.5,249.7,501.2
310,SAMUEL MORSE PROFESSOR,35037473,480.0,363.0,0.0,0.0,0.0,1.0,1.0,1.0,1.0,1.0,0.0,789.0,882.0,1296.0,375.0,0.0,2,1,JOSE ESTIMA FILHO,SN,AVENIDA,PARQUE SANTA BARBARA,4960020,-23.7320023,-46.79265463,EM-3ª série,265,258.3,250.7,509.0
311,ALVARO DE SOUZA LIMA DOUTOR,35037618,263.0,407.0,17.0,0.0,0.0,0.0,1.0,0.0,1.0,1.0,0.0,588.0,589.0,890.0,287.0,9.0,2,1,RUA MEMORIAL DE AIRES,478,RUA,JARDIM SAO SAVERIO,4194280,-23.653378,-46.6091333,EM-3ª série,"262,7",248.2,258.1,506.3
312,CAFE FILHO PRESIDENTE,35037624,847.0,695.0,11.0,0.0,0.0,0.0,1.0,0.0,0.0,0.0,0.0,790.0,858.0,1100.0,548.0,0.0,2,1,GASTAO RAUL DE FORTON BOUSQUET,401,RUA,JARDIM IPE,5797000,-23.6560175,-46.7709039,EM-3ª série,"262,6",257.4,254.2,511.59999999999997
313,UBALDO COSTA LEITE DOUTOR,35037655,490.0,623.0,5.0,5.0,0.0,0.0,1.0,1.0,1.0,0.0,0.0,627.0,647.0,1028.0,246.0,0.0,2,1,JOSE DA COSTA PEREIRA,70,RUA,JARDIM GUARANI,2851130,-23.4601782,-46.6872972,EM-3ª série,"239,1",245.5,246.9,492.4
314,EDGARD PIMENTEL REZENDE PROFESSOR,35037679,414.0,389.0,14.0,0.0,0.0,1.0,1.0,1.0,1.0,0.0,1.0,426.0,448.0,874.0,0.0,0.0,2,1,JERONIMO SOUTO MAIOR,120,RUA,VILA NINA,2834090,-23.4763859,-46.6931543,EM-3ª série,"258,7",268.2,249.2,517.4
315,ANA SIQUEIRA DA SILVA,35037692,261.0,230.0,10.0,2.0,0.0,1.0,1.0,1.0,1.0,0.0,1.0,257.0,253.0,510.0,0.0,229.0,2,1,MAURO DE ARAUJO RIBEIRO,678,RUA,CIDADE D ABRIL,5182000,-23.44961557,-46.7441018,EM-3ª série,"301,3",291.2,282.0,573.2
316,CARLOS FREDERICO WERNECK LACERDA JORNALISTA,35037709,326.0,372.0,14.0,0.0,0.0,0.0,1.0,1.0,1.0,0.0,0.0,503.0,599.0,695.0,407.0,0.0,2,1,CONCEICAO DO NORTE,906,RUA,VILA ZAT,2976200,-23.4733919,-46.7153793,EM-3ª série,"237,4",229.1,231.8,460.9
317,MILTON DA SILVA RODRIGUES PROFESSOR,35037710,4.0,351.0,18.0,120.0,0.0,1.0,1.0,1.0,1.0,1.0,1.0,190.0,170.0,360.0,0.0,360.0,2,1,JOAO CORDEIRO,929,RUA,MOINHO VELHO,2960000,-23.4914726,-46.7049476,EM-3ª série,"291,6",289.7,290.1,579.8
318,VERIDIANA CAMACHO CARVALHO GOMES PROFA,35037783,402.0,588.0,0.0,0.0,0.0,0.0,1.0,0.0,1.0,0.0,1.0,727.0,668.0,945.0,450.0,0.0,2,1,CARLOS DOS SANTOS,781,RUA,JARDIM BRASIL ZONA NORTE,2234000,-23.4795973,-46.5734091,EM-3ª série,"271,3",265.8,263.0,528.8
319,JUSTINO CARDOSO DR,35037795,554.0,380.0,16.0,0.0,0.0,0.0,1.0,0.0,1.0,0.0,0.0,493.0,622.0,729.0,386.0,1.0,2,1,JOAO SOUTO MAIOR,465,RUA,VILA MEDEIROS,2218000,-23.4875611,-46.5859307,EM-3ª série,"239,7",236.4,240.2,476.6
320,ITALO BETARELLO,35038097,609.0,806.0,14.0,0.0,0.0,1.0,1.0,1.0,0.0,0.0,1.0,716.0,773.0,998.0,491.0,0.0,2,1,ANDRESA,120,RUA,JARDIM SAO JOAO JARAGUA,2995140,-23.4503372,-46.736214,EM-3ª série,"262,1",261.4,258.9,520.3
321,CAETANO DE CAMPOS,35038143,469.0,441.0,18.0,0.0,0.0,0.0,1.0,1.0,0.0,0.0,0.0,709.0,707.0,1416.0,0.0,0.0,2,1,RUA PIRES DA MOTA,99,RUA,ACLIMACAO,1529001,-23.5651803,-46.6309484,EM-3ª série,"271,4",266.3,265.5,531.8
322,JOSE MARIA WHITAKER DOUTOR,35038167,4.0,981.0,27.0,0.0,0.0,1.0,1.0,1.0,1.0,0.0,1.0,566.0,547.0,1113.0,0.0,31.0,2,1,ARNALDO DANTE PADRE,250,RUA,JARDIM SANTA CRUZ SACOMA,4182070,-23.6404025,-46.5965662,EM-3ª série,"277,7",274.6,273.0,547.6
323,SALVADOR MOYA,35038210,181.0,167.0,20.0,0.0,0.0,0.0,1.0,1.0,1.0,1.0,1.0,172.0,200.0,372.0,0.0,163.0,2,1,ITAIARA,51,RUA,CIDADE VARGAS,4320110,-23.6492691,-46.6355722,EM-3ª série,"265,4",249.4,250.3,499.70000000000005
324,VICENTE RAO PROFESSOR,35038234,505.0,466.0,7.0,0.0,0.0,0.0,1.0,1.0,1.0,0.0,1.0,514.0,557.0,1071.0,0.0,488.0,2,1,RUA PASTOR RUBENS LOPES,368,RUA,AMERICANOPOLIS,4409020,-23.6757728,-46.6511493,EM-3ª série,"262,8",269.7,258.0,527.7
325,FRANCISCO DE PAULA CONCEICAO JUNIOR PROFESSOR,35038258,870.0,767.0,24.0,0.0,16.0,1.0,1.0,0.0,1.0,0.0,1.0,1158.0,1300.0,1744.0,714.0,0.0,2,1,DOMINGOS SEQUEIRA,40,RUA,JARDIM MITSUTANI,5791050,-23.6487099,-46.7836025,EM-3ª série,"277,1",268.6,262.7,531.3
326,ADRIAO BERNARDES PROF,35038261,172.0,142.0,10.0,6.0,0.0,1.0,1.0,1.0,1.0,0.0,1.0,248.0,277.0,525.0,0.0,0.0,2,1,ITAQUAQUECETUBA,9953,ESTRADA,JARDIM SANTA TEREZA,4872060,-23.77352838,-46.64590558,EM-3ª série,"261,5",252.2,257.6,509.8
327,CALLIA MAESTRO,35038271,247.0,422.0,16.0,0.0,0.0,1.0,1.0,1.0,1.0,0.0,0.0,454.0,456.0,910.0,0.0,6.0,2,1,RUA JOSE RUFINO DA SILVA,249,RUA,JARDIM LALLO,4812240,-23.70938389,-46.68608323,EM-3ª série,"263,3",260.4,248.6,509.0
328,JOAQUIM ALVARES CRUZ PROF,35038283,437.0,309.0,0.0,0.0,0.0,0.0,0.0,0.0,0.0,1.0,0.0,545.0,628.0,1173.0,0.0,12.0,2,1,RUA DOIS,2,RUA,BARRAGEM,4896020,-23.87832948,-46.65074423,EM-3ª série,"273,2",255.7,262.2,517.9
329,JOSE LINS DO REGO,35038295,7.0,1549.0,13.0,0.0,0.0,0.0,1.0,0.0,0.0,0.0,1.0,941.0,902.0,1197.0,646.0,2.0,2,1,ESTRADA DO M BOI MIRIM,2463,,JARDIM DAS FLORES,4905022,-23.6760324,-46.755481,EM-3ª série,"255,4",260.3,259.5,519.8
330,MARIA LUIZA DE ANDRADE MARTINS ROQUE PROFA,35038301,711.0,601.0,20.0,37.0,0.0,0.0,1.0,1.0,0.0,1.0,0.0,903.0,984.0,1420.0,467.0,0.0,2,1,MARCELINO NOGUEIRA JUNIOR,117,RUA,JARDIM ELIANA,4851280,-23.7529482,-46.66842,EM-3ª série,"257,2",252.2,252.6,504.79999999999995
331,VERA ATHAYDE PEREIRA PROFA,35038313,122.0,101.0,15.0,0.0,0.0,1.0,1.0,1.0,1.0,1.0,1.0,107.0,146.0,253.0,0.0,117.0,2,1,LECONTE DE LISLE,300,RUA,JARDIM VISTA ALEGRE,4831130,-23.737835,-46.7120727,EM-3ª série,"271,9",277.1,268.3,545.4000000000001
332,CHARLES DE GAULLE,35039123,544.0,1231.0,13.0,0.0,0.0,0.0,1.0,0.0,1.0,0.0,1.0,1016.0,1038.0,1381.0,673.0,28.0,2,1,RUA ANTONIO JOAO MEDEIROS,810,RUA,JARDIM INA,8140060,-23.5097359,-46.3984524,EM-3ª série,"258,2",258.7,257.9,516.5999999999999
333,MARTHA FIGUEIRA NETTO DA SILVA PROFESSORA,35039147,369.0,255.0,14.0,0.0,0.0,0.0,1.0,0.0,1.0,0.0,0.0,325.0,338.0,663.0,0.0,0.0,2,1,RUA ABEYLARD QUEIROS,195,RUA,VILA AGUA FUNDA,4155010,-23.6308024,-46.6260467,EM-3ª série,"274,6",251.3,258.6,509.90000000000003
334,ROBERTO MANGE,35039159,717.0,692.0,0.0,20.0,0.0,1.0,1.0,1.0,0.0,0.0,1.0,743.0,754.0,1212.0,285.0,13.0,2,1,AVENIDA CARLOS ALBERTO BASTOS MACHADO,50,AVENIDA,JARDIM MYRNA,4856080,-23.7708243,-46.6943978,EM-3ª série,"281,8",270.2,261.6,531.8
335,ANA LUIZA FLORENCE BORGES PROFA,35039172,311.0,318.0,5.0,0.0,0.0,1.0,1.0,0.0,0.0,0.0,1.0,329.0,348.0,458.0,219.0,0.0,2,1,JOSE PAULO CANDIDO,25,RUA,JARDIM SILVEIRA,4892010,-23.84836999,-46.71488034,EM-3ª série,"238,8",241.7,243.1,484.79999999999995
336,QUINTILIANO JOSE SITRANGULO PROF,35039248,595.0,408.0,10.0,9.0,17.0,0.0,1.0,1.0,1.0,1.0,1.0,695.0,738.0,1201.0,232.0,0.0,2,1,ARRAIAL DA ANTA,325,RUA,VILA CARMOSINA,8270090,-23.557306,-46.4617188,EM-3ª série,"254,3",262.9,263.9,526.8
337,CARLOS HENRIQUE LIBERALLI PROFESSOR,35039251,427.0,250.0,20.0,0.0,0.0,1.0,1.0,1.0,1.0,0.0,1.0,619.0,651.0,1027.0,243.0,0.0,2,1,MARIA FERRAZ DO AMARAL DONA,128,RUA,JARDIM SAO FRANCISCO,8390255,-23.6252643,-46.44742247,EM-3ª série,"262,2",254.5,240.3,494.8
338,CHIBATA MIYAKOSHI,35039263,287.0,257.0,24.0,0.0,0.0,1.0,1.0,1.0,1.0,1.0,1.0,428.0,389.0,685.0,132.0,20.0,2,1,EDUARDO DE MARTINO,72,RUA,CIDADE SAO MATEUS,3966020,-23.5949648,-46.4787864,EM-3ª série,"260,6",252.7,233.8,486.5
339,AYRES NETO DOUTOR,35039287,717.0,1107.0,21.0,0.0,0.0,1.0,1.0,1.0,1.0,1.0,1.0,967.0,980.0,1320.0,627.0,0.0,2,1,JOSE FLAVIO PEREIRA,173,RUA,PARQUE DOROTEIA,4474220,-23.7010014,-46.6442302,EM-3ª série,"270,4",263.4,254.1,517.5
340,IBRAHIM NOBRE,35039299,4.0,432.0,14.0,0.0,0.0,0.0,1.0,1.0,1.0,0.0,1.0,284.0,182.0,466.0,0.0,466.0,2,1,RUA PROFESSOR DJALMA BENTO,155,RUA,JARDIM LUANDA,4678020,-23.6668682,-46.6808911,EM-3ª série,307,291.2,295.5,586.7
341,FRANCISCO BRASILIENSE FUSCO DOUTOR,35039317,452.0,449.0,28.0,0.0,0.0,1.0,1.0,0.0,1.0,0.0,0.0,640.0,626.0,1152.0,114.0,0.0,2,1,JARACATIA,941,RUA,JARDIM UMARIZAL,5754071,-23.6158423,-46.6813955,EM-3ª série,"284,5",270.0,267.4,537.4
342,JOSE OSCAR ABREU SAMPAIO,35039342,75.0,75.0,0.0,0.0,0.0,0.0,1.0,1.0,1.0,0.0,0.0,195.0,204.0,321.0,78.0,0.0,2,1,LUISA MARIA ROSA,11,RUA,VILA SULINA,5264050,-23.4444011,-46.7853183,EM-3ª série,"264,4",272.6,255.5,528.1
343,NELLO LORENZON,35039366,391.0,402.0,0.0,0.0,0.0,0.0,1.0,1.0,0.0,0.0,1.0,432.0,470.0,765.0,137.0,9.0,2,1,RUA SAO GONCALO DO SAPUCAI,61,RUA,PONTE RASA,3891050,-23.511939,-46.4893501,EM-3ª série,268,263.0,262.6,525.6
344,BENEDITO FERREIRA DE ALBUQUERQUE PROF,35039385,231.0,176.0,17.0,0.0,0.0,1.0,1.0,1.0,1.0,0.0,1.0,338.0,364.0,702.0,0.0,18.0,2,1,BENJAMIM DIEMAR,266,RUA,VILA ROSCHEL,4891070,-23.83950214,-46.73410286,EM-3ª série,"257,3",247.4,242.7,490.1
345,REGINA MIRANDA BRANT DE CARVALHO PROFA,35039391,188.0,156.0,6.0,0.0,0.0,0.0,1.0,1.0,1.0,1.0,1.0,238.0,289.0,527.0,0.0,9.0,2,1,FILOMENA BELMONT,75,RUA,ENGENHEIRO MARSILAC,4891370,-23.90823577,-46.70653883,EM-3ª série,"252,6",244.6,265.6,510.20000000000005
346,ARLINDO PINTO DA SILVA PROF,35040332,197.0,117.0,3.0,1.0,0.0,0.0,1.0,0.0,1.0,0.0,0.0,257.0,313.0,570.0,0.0,3.0,2,1,MARCION,274,RUA,JARDIM LAJEADO,8041500,-23.5150314,-46.4386411,EM-3ª série,"249,3",250.4,253.2,503.6
347,LEONOR RENDESI PROFESSORA,35040964,336.0,309.0,21.0,0.0,0.0,1.0,1.0,0.0,1.0,0.0,1.0,532.0,483.0,977.0,38.0,1.0,2,1,BOAVENTURA RODRIGUES DA SILVA,1000,RUA,PARQUE BOTURUSSU,3801120,-23.4982603,-46.4888718,EM-3ª série,"286,6",260.9,266.2,527.0999999999999
348,PEDRO DE ALCANTARA MARCONDES MACHADO PROFESSOR,35040976,217.0,455.0,17.0,18.0,0.0,1.0,1.0,1.0,1.0,0.0,1.0,436.0,462.0,632.0,266.0,0.0,2,1,MANOEL DOS SANTOS BRAGA,391,AVENIDA,VILA ROBERTINA,3807320,-23.5029611,-46.4738638,EM-3ª série,"267,4",267.3,257.0,524.3
349,MARIA AUGUSTA CORREA PROFESSORA,35040988,299.0,196.0,27.0,14.0,0.0,1.0,1.0,1.0,1.0,0.0,0.0,513.0,523.0,1036.0,0.0,0.0,2,1,RUA PROFESSOR LEONCIO CORREIA,SN,RUA,CANGAIBA,3720190,-23.5048072,-46.5311112,EM-3ª série,"278,2",269.6,275.6,545.2
350,CLOVIS DE OLIVEIRA PROFESSOR DOUTOR,35040997,219.0,611.0,17.0,0.0,0.0,1.0,1.0,0.0,1.0,1.0,1.0,464.0,554.0,794.0,224.0,0.0,2,1,LIRA CEARENSE,869,RUA,JARDIM SANTA EFIGENIA,5763450,-23.6401117,-46.7552357,EM-3ª série,"264,7",266.0,259.9,525.9
351,RONALDO GARIBALDI PERETTI PROFESSOR,35041002,586.0,561.0,4.0,0.0,0.0,1.0,1.0,1.0,1.0,0.0,0.0,780.0,776.0,1058.0,498.0,0.0,2,1,ANTONIO JOSE BENTES,691,RUA,JARDIM IRAPIRANGA,5891160,-23.6654986,-46.7886493,EM-3ª série,"254,9",253.1,247.4,500.5
352,JOITI HIRATA,35041026,301.0,469.0,20.0,0.0,0.0,1.0,1.0,1.0,1.0,0.0,1.0,750.0,759.0,1167.0,342.0,0.0,2,1,LUAR DO SERTAO,165,RUA,CHACARA SANTA MARIA,5879450,-23.6869624,-46.7926803,EM-3ª série,"274,7",270.9,269.1,540.0
353,ANTONIO MANOEL ALVES DE LIMA,35041038,347.0,489.0,16.0,0.0,0.0,1.0,1.0,1.0,1.0,0.0,1.0,544.0,509.0,816.0,237.0,19.0,2,1,PIETRO CASELLA,07,RUA,JARDIM SAO JOAO,5815055,-23.66017689,-46.73712831,EM-3ª série,"266,8",273.6,262.7,536.3
354,MANOEL TABACOW HIDAL PROFESSOR,35041048,265.0,404.0,3.0,0.0,0.0,1.0,1.0,1.0,0.0,1.0,0.0,546.0,547.0,693.0,400.0,0.0,2,1,MANUEL DE MACEDO,247,RUA,PEDREIRA,4459290,-23.694654,-46.6713228,EM-3ª série,"260,9",255.5,252.4,507.9
355,CAROLINA CINTRA DA SILVEIRA PROFESSORA,35041051,268.0,473.0,0.0,0.0,0.0,0.0,0.0,1.0,0.0,1.0,0.0,632.0,542.0,732.0,442.0,0.0,2,1,LUIS DA FONSECA GALVAO,226,RUA,PARQUE MARIA HELENA,5855300,-23.6624598,-46.7668443,EM-3ª série,"268,9",265.6,263.6,529.2
356,LUIS MAGALHAES DE ARAUJO PROFESSOR,35041063,8.0,1445.0,4.0,0.0,0.0,1.0,1.0,0.0,1.0,0.0,1.0,913.0,877.0,1350.0,440.0,186.0,2,1,M BOI MIRIM,3583,ESTRADA,JARDIM DAS FLORES,4905023,-23.6801595,-46.7643296,EM-3ª série,"272,1",272.3,263.8,536.1
357,SANTO DIAS DA SILVA,35041609,327.0,350.0,13.0,16.0,0.0,1.0,1.0,1.0,1.0,0.0,1.0,348.0,389.0,737.0,0.0,335.0,2,1,RUA ALFREDO CORTES,32,RUA,JARDIM MARINGA,4814070,-23.72137526,-46.68103333,EM-3ª série,"293,8",282.2,281.4,563.5999999999999
358,JOSE DE OLIVEIRA ORLANDI,35041713,331.0,370.0,10.0,0.0,0.0,1.0,1.0,0.0,0.0,0.0,0.0,351.0,398.0,749.0,0.0,12.0,2,1,ADRIANO BERTOZZI,1195,AVENIDA,JARDIM HELIAN,8265000,-23.5746952,-46.4570003,EM-3ª série,"278,1",261.6,259.8,521.4000000000001
359,MARIA FERRAZ DE CAMPOS PROFA,35041725,407.0,372.0,24.0,0.0,0.0,1.0,1.0,1.0,1.0,0.0,0.0,681.0,671.0,1156.0,196.0,20.0,2,1,TEODORO SAO,453,RUA,VILA CARMOSINA,8290005,-23.5555659,-46.4541044,EM-3ª série,"277,5",269.7,268.7,538.4
360,FLAVIO JOSE OSORIO NEGRINI PROFESSOR,35041737,541.0,529.0,7.0,0.0,0.0,0.0,1.0,1.0,0.0,0.0,0.0,529.0,656.0,1052.0,133.0,0.0,2,1,CASIMIRO,66,RUA,JARDIM OLINDA,5766300,-23.6291357,-46.7520634,EM-3ª série,"271,4",263.6,258.1,521.7
361,DUGLAS TEIXEIRA MONTEIRO PROFESSOR,35041750,314.0,283.0,12.0,0.0,0.0,0.0,1.0,1.0,0.0,0.0,1.0,562.0,518.0,965.0,115.0,0.0,2,1,AVENIDA PROFESSOR OSCAR CAMPIGLIA,529,,PARQUE IPE,5762230,-23.6408724,-46.7617932,EM-3ª série,"274,8",264.7,266.7,531.4
362,MARIA JUVENAL HOMEM DE MELLO PROFA,35041762,238.0,326.0,18.0,10.0,0.0,1.0,1.0,1.0,1.0,0.0,1.0,439.0,491.0,930.0,0.0,20.0,2,1,MIRAFLORES,95,RUA,JARDIM CASTRO ALVES,4842470,-23.7403464,-46.68189204,EM-3ª série,"274,9",272.4,267.3,539.7
363,EMILIO WARWICK KERR PASTOR,35041774,492.0,403.0,10.0,0.0,0.0,1.0,1.0,1.0,1.0,1.0,1.0,581.0,582.0,1079.0,84.0,8.0,2,1,WALTER SGARBI,700,RUA,JARDIM REIMBERG,4845270,-23.75383716,-46.69626595,EM-3ª série,"270,8",274.7,265.6,540.3
364,JOSEPHINA CINTRA DAMIAO PROFESSORA,35041786,476.0,294.0,0.0,0.0,0.0,1.0,1.0,1.0,1.0,0.0,0.0,751.0,789.0,1139.0,401.0,0.0,2,1,JARARAU,152,ESTRADA,CHACARA NANI,4943120,-23.7093028,-46.7920852,EM-3ª série,"263,5",254.7,253.0,507.7
365,ERODICE PONTES DE QUEIROZ REV,35041798,733.0,526.0,13.0,10.0,0.0,1.0,1.0,1.0,0.0,0.0,1.0,1061.0,1130.0,1703.0,488.0,0.0,2,1,AV. PROFESSOR HERMOGENES DE FREITAS LEITAO FILHO,1500,AVENIDA,JARDIM CASA GRANDE,4865000,-23.784975,-46.7147115,EM-3ª série,"265,9",256.8,248.2,505.0
366,SAMUEL WAINER,35041804,408.0,900.0,23.0,20.0,0.0,1.0,1.0,1.0,1.0,1.0,1.0,960.0,978.0,1210.0,728.0,26.0,2,1,JOSE DO RIO PRETO SAO,71,RUA,CONJUNTO HABITACIONAL BRIGADEIRO FARIA LIMA,4840460,-23.7546572,-46.683889,EM-3ª série,"288,3",273.8,266.3,540.1
367,MATTATHIAS GOMES DOS SANTOS REV,35043734,183.0,456.0,9.0,52.0,2.0,1.0,1.0,1.0,1.0,1.0,1.0,566.0,568.0,933.0,201.0,6.0,2,1,MANUEL DUARTE FERRO,778,RUA,VILA ITAIM,8190470,-23.4850024,-46.3921536,EM-3ª série,"261,7",269.7,260.6,530.3
368,FRANCISCO DE ASSIS PIRES CORREA PROFESSOR,35043746,543.0,659.0,32.0,17.0,0.0,1.0,1.0,1.0,0.0,1.0,0.0,630.0,639.0,1269.0,0.0,3.0,2,1,RUA SILVIANOPOLIS,20,ITAQUERA,CONJUNTO RESIDENCIAL JOSE BONIFACIO,8255410,-23.54947,-46.43384,EM-3ª série,"281,4",282.7,273.0,555.7
369,JULIA DELLA CASA PAULA PROFESSORA,35043771,254.0,315.0,17.0,0.0,0.0,1.0,1.0,0.0,1.0,1.0,0.0,281.0,334.0,615.0,0.0,0.0,2,1,GEORGE BERNANOS,311,RUA,JARDIM SAO JORGE,4432110,-23.6832842,-46.6617479,EM-3ª série,"280,2",255.2,253.3,508.5
370,JORGE DUPRAT FIGUEIREDO,35043928,503.0,417.0,13.0,0.0,0.0,0.0,1.0,0.0,1.0,0.0,1.0,537.0,582.0,882.0,237.0,33.0,2,1,ANTONIO LOMBARDO,140,RUA,JARDIM SANTA TEREZINHA ZONA LESTE,3572230,-23.5738449,-46.499243,EM-3ª série,"267,4",259.1,260.3,519.4000000000001
371,MARIO LOPES LEAO DR,35043936,530.0,479.0,12.0,5.0,0.0,1.0,1.0,0.0,1.0,1.0,1.0,489.0,573.0,774.0,288.0,2.0,2,1,JOSE MENDES NETTO,57,RUA,JARDIM DOS ALAMOS,4883270,-23.811839,-46.738045,EM-3ª série,"289,3",279.2,274.5,553.7
372,HERCULANO DE FREITAS PROFESSOR,35043953,371.0,392.0,16.0,0.0,0.0,0.0,0.0,1.0,1.0,1.0,0.0,428.0,462.0,750.0,140.0,14.0,2,1,OLIVIER BACHELIN,7,AVENIDA,ALTO DA RIVIERA,4929170,-23.70050081,-46.76441576,EM-3ª série,"265,9",260.1,255.4,515.5
373,ZORAIDE DE CAMPOS HELU PROFESSORA,35044261,116.0,136.0,0.0,0.0,0.0,0.0,1.0,1.0,1.0,0.0,0.0,258.0,257.0,481.0,34.0,0.0,2,1,GIOVANI PALADINO,76,RUA,JARDIM JARAGUA,5265020,-23.5035124,-46.7113767,EM-3ª série,"273,7",237.8,238.7,476.5
374,OCTACILIO DE CARVALHO LOPES PROF,35044283,106.0,275.0,30.0,0.0,0.0,1.0,1.0,0.0,1.0,0.0,1.0,189.0,208.0,397.0,0.0,292.0,2,1,WALDEMAR TIETZ,850,AVENIDA,CONJUNTO HABITACIONAL PADRE JOSE DE ANCHIETA,3589000,-23.5496423,-46.4864556,EM-3ª série,"287,1",276.9,269.0,545.9
375,ORESTES ROSOLIA PROF,35044295,797.0,896.0,22.0,1.0,0.0,1.0,1.0,1.0,1.0,1.0,1.0,1097.0,1032.0,1616.0,513.0,58.0,2,1,JERONIMO MACHADO PADRE,200,RUA,CONJUNTO HABITACIONAL PADRE MANOEL DA NOBREGA,3590000,-23.5435219,-46.4799191,EM-3ª série,"281,7",274.0,267.7,541.7
376,JOAO PRADO MARGARIDO PROF,35044313,467.0,555.0,9.0,0.0,0.0,0.0,1.0,1.0,0.0,0.0,0.0,525.0,563.0,1088.0,0.0,36.0,2,1,CARMINE MONETTI,81,RUA,JARDIM DAS OLIVEIRAS,8111160,-23.4913725,-46.3829211,EM-3ª série,"276,4",266.3,265.2,531.5
377,SALIM FARAH MALUF PROFESSOR,35044325,359.0,609.0,7.0,0.0,0.0,0.0,1.0,0.0,1.0,1.0,0.0,825.0,913.0,1230.0,508.0,3.0,2,1,JARDIM TAMOIO,100,RUA,CONJUNTO RESIDENCIAL JOSE BONIFACIO,8255010,-23.55500714,-46.43568539,EM-3ª série,"258,8",250.9,251.6,502.5
378,FADLO HAIDAR,35044337,439.0,739.0,20.0,0.0,0.0,0.0,0.0,0.0,1.0,0.0,0.0,618.0,616.0,1234.0,0.0,29.0,2,1,MURMURIOS DA TARDE,200,RUA,CONJUNTO RESIDENCIAL JOSE BONIFACIO,8253580,-23.5534898,-46.4443382,EM-3ª série,"277,7",274.0,262.7,536.7
379,WILSON ROBERTO SIMONINI PROF,35044349,4.0,465.0,0.0,18.0,2.0,1.0,1.0,1.0,1.0,1.0,0.0,236.0,259.0,495.0,0.0,495.0,2,1,JOAO CORREIA DE MAGALHAES,200,RUA,PARQUE DOM JOAO NERI,8151260,-23.5196571,-46.4048979,EM-3ª série,"294,9",284.7,279.9,564.5999999999999
380,JOAO ERNESTO FAGGIN DOUTOR,35044374,400.0,311.0,15.0,1.0,10.0,1.0,1.0,1.0,1.0,0.0,1.0,383.0,416.0,673.0,126.0,0.0,2,1,FULFARO,141,AVENIDA,VILA CLARA,4414200,-23.6747197,-46.6322319,EM-3ª série,"243,6",229.1,229.7,458.79999999999995
381,DAVID NASSER JORNALISTA,35044386,383.0,363.0,27.0,0.0,0.0,1.0,1.0,1.0,0.0,0.0,1.0,482.0,557.0,1039.0,0.0,0.0,2,1,SEVERIANO CARDOSO,280,RUA,JARDIM MACEDONIA,5894430,-23.6547486,-46.787036,EM-3ª série,"257,2",263.6,263.4,527.0
382,ANTONIO BERNARDES DE OLIVEIRA PROFESSOR,35044398,370.0,342.0,18.0,0.0,0.0,0.0,1.0,0.0,1.0,0.0,0.0,358.0,400.0,758.0,0.0,0.0,2,1,JEAN MAROT,12,RUA,JARDIM SAO JOAQUIM,4917040,-23.6884508,-46.7501427,EM-3ª série,"284,5",272.9,263.8,536.7
383,DAVID ZEIGER,35044404,379.0,465.0,17.0,0.0,0.0,1.0,1.0,1.0,1.0,1.0,1.0,456.0,441.0,897.0,0.0,2.0,2,1,SATELITE JAPETUS,30,RUA,JARDIM MARIA AMALIA,4858520,-23.67703172,-46.6807574,EM-3ª série,"272,6",274.2,272.3,546.5
384,CARLOS CATTONY,35044436,290.0,144.0,13.0,13.0,0.0,1.0,1.0,1.0,0.0,0.0,0.0,341.0,365.0,706.0,0.0,0.0,2,1,PROFESSOR HERMAN VON IHERING,11,AVENIDA,JARDIM CASA GRANDE,4870423,-23.7738183,-46.7407214,EM-3ª série,"304,4",274.2,275.0,549.2
385,EURIPEDES SIMOES DE PAULA PROF,35044441,676.0,790.0,16.0,0.0,0.0,1.0,1.0,1.0,1.0,0.0,1.0,778.0,798.0,1379.0,197.0,1.0,2,1,MARIA PAPE,30,RUA,JARDIM LUCELIA,4852218,-23.7621457,-46.6729937,EM-3ª série,"246,4",256.3,251.8,508.1
386,MARIO ARMINANTE PROF,35044453,527.0,498.0,8.0,0.0,0.0,0.0,1.0,0.0,1.0,1.0,1.0,951.0,986.0,1446.0,491.0,0.0,2,1,JOSE ROSCHEL RODRIGUES,146,RUA,RECANTO CAMPO BELO,4880130,-23.7918696,-46.7319781,EM-3ª série,"252,9",247.5,259.7,507.2
387,ANTONIO PEREIRA LIMA DR,35044465,203.0,171.0,10.0,1.0,0.0,0.0,1.0,1.0,0.0,0.0,0.0,189.0,209.0,398.0,0.0,5.0,2,1,JUSA,1414,RUA,PARELHEIROS,4889000,-23.8214988,-46.7507348,EM-3ª série,"249,2",267.2,265.2,532.4
388,ARGEO PINTO DIAS ENG,35046059,616.0,660.0,10.0,0.0,0.0,0.0,1.0,0.0,0.0,0.0,1.0,663.0,680.0,934.0,409.0,0.0,2,1,FALCAO PEREGRINO,22,RUA,JARDIM SABIA,4857350,-23.7828818,-46.6904871,EM-3ª série,"285,1",282.9,272.7,555.5999999999999
389,ANTONIO AGGIO,35046061,405.0,370.0,3.0,3.0,8.0,1.0,0.0,1.0,1.0,1.0,1.0,432.0,393.0,569.0,256.0,0.0,2,1,HERCILIA GONCALVES DOS SANTOS,16,RUA,GUARAPIRANGA,4912040,-23.68465268,-46.74476146,EM-3ª série,"254,8",264.0,253.2,517.2
390,PEDRO MOREIRA MATOS PROF,35046224,429.0,241.0,0.0,3.0,0.0,1.0,1.0,1.0,1.0,0.0,1.0,587.0,631.0,867.0,351.0,0.0,2,1,RAFAEL ZIMBARDI,38,RUA,JARDIM NAIR,8071130,-23.4906117,-46.44935,EM-3ª série,"268,1",258.4,259.3,517.7
391,FLAMINIO FAVERO PROFESSOR,35046243,435.0,539.0,19.0,0.0,0.0,1.0,1.0,0.0,1.0,0.0,1.0,740.0,775.0,910.0,605.0,0.0,2,1,AVENIDA GENERAL PENHA BRASIL,3001,AVENIDA,VILA NOVA CACHOEIRINHA,2673000,-23.450685,-46.6778653,EM-3ª série,"247,9",248.5,247.6,496.1
392,ANTONIO SYLVIO DA CUNHA BUENO,35046279,513.0,503.0,10.0,15.0,0.0,1.0,1.0,1.0,0.0,0.0,1.0,527.0,562.0,1089.0,0.0,8.0,2,1,ANDREA FELICIANI,501,RUA,CONJUNTO HABITACIONAL PADRE MANOEL DE PAIVA,3591020,-23.5483545,-46.4811097,EM-3ª série,"272,2",272.2,262.2,534.4
393,FRANCISCO PEREIRA DE SOUZA FILHO PROF,35046292,387.0,560.0,15.0,1.0,2.0,1.0,1.0,1.0,1.0,1.0,1.0,512.0,493.0,1005.0,0.0,26.0,2,1,GONCALVES RIBEIRO,50,RUA,PARQUE PAULISTANO,8080090,-23.4823449,-46.4306454,EM-3ª série,"263,1",268.7,266.6,535.3
394,TERCIO MORAES PEREIRA REV,35046309,5.0,481.0,0.0,80.0,2.0,1.0,1.0,1.0,0.0,0.0,0.0,308.0,194.0,502.0,0.0,502.0,2,1,PEDRO SOARES DE ANDRADE,775,RUA,VILA ROSARIA,8021040,-23.5018083,-46.4350502,EM-3ª série,"308,7",294.4,296.6,591.0
395,LUIS GONZAGA TRAVASSOS DA ROSA,35046334,208.0,133.0,6.0,0.0,0.0,1.0,1.0,0.0,0.0,0.0,0.0,271.0,321.0,592.0,0.0,0.0,2,1,AFONSO VIDAL,600,RUA,JARDIM SANTO ANTONIO,5723330,-23.6400831,-46.7328157,EM-3ª série,"273,8",275.0,272.3,547.3
396,ARNALDO LAURINDO PROFESSOR,35046346,270.0,434.0,21.0,15.0,16.0,1.0,1.0,0.0,1.0,0.0,0.0,679.0,692.0,960.0,411.0,11.0,2,1,ALTINO ALVES DE ABREU,110,RUA,PARQUE SANTO ANTONIO,5822000,-23.6635364,-46.7513562,EM-3ª série,"244,1",251.8,250.1,501.9
397,TIAGO ALBERIONE PADRE,35046358,914.0,935.0,20.0,30.0,80.0,1.0,1.0,1.0,1.0,0.0,1.0,1023.0,1065.0,1361.0,727.0,0.0,2,1,ANGELO CRISTIANINI,1434,AVENIDA,CIDADE JULIA,4424000,-23.6900609,-46.6438287,EM-3ª série,"269,6",260.8,251.1,511.9
398,ESTHER GARCIA PROFA EE,35046361,455.0,356.0,17.0,0.0,0.0,1.0,1.0,0.0,0.0,0.0,0.0,462.0,475.0,852.0,85.0,17.0,2,1,RUA ANTONIO CARLOS BENJAMIM DOS SANTOS,858,AVENIDA,JARDIM MYRNA,4856070,-23.7478182,-46.69762,EM-3ª série,"278,1",273.8,270.6,544.4000000000001
399,MARIA DE LOURDES ALMEIDA SINISGALLI PROFA,35048033,513.0,374.0,19.0,0.0,0.0,1.0,1.0,0.0,1.0,1.0,1.0,417.0,518.0,652.0,283.0,7.0,2,1,AV. PROFESSOR HERMGENES DE FREITAS LEITAO,4946,AVENIDA,PARELHEIROS,4865000,-23.8110633,-46.714638,EM-3ª série,"236,2",234.5,227.5,462.0
400,JOAO BAPTISTA ALVES SILVA PROF,35048616,577.0,500.0,17.0,26.0,0.0,1.0,1.0,1.0,1.0,1.0,0.0,580.0,537.0,1117.0,0.0,0.0,2,1,MANUEL VIEIRA DA LUZ,384,RUA,SITIO DO PIQUERI,2318020,-23.4502836,-46.5851354,EM-3ª série,280,264.3,257.3,521.6
401,ROMEU MONTORO,35048636,243.0,300.0,14.0,0.0,0.0,1.0,1.0,1.0,1.0,0.0,1.0,273.0,306.0,579.0,0.0,302.0,2,1,LUIS JULIANI,422,RUA,JARDIM ADUTORA,3978270,-23.6172088,-46.506279,EM-3ª série,"260,5",263.8,267.7,531.5
402,PAULO LAURO DR,35048641,470.0,321.0,20.0,0.0,0.0,1.0,1.0,0.0,1.0,0.0,1.0,399.0,428.0,827.0,0.0,297.0,2,1,VITALINO DOS SANTOS,85,RUA,PARQUE SAVOY CITY,3570160,-23.5627673,-46.4870325,EM-3ª série,"280,2",273.8,270.8,544.6
403,MOACYR AMARAL DOS SANTOS,35048653,281.0,270.0,17.0,0.0,0.0,1.0,1.0,0.0,1.0,1.0,0.0,273.0,301.0,574.0,0.0,0.0,2,1,CARLOS BELLEVILLE,22,RUA,JARDIM BURITI,8320880,-23.62454257,-46.47811309,EM-3ª série,"276,3",278.3,257.5,535.8
404,RUTH CABRAL TRONCARELLI PROFESSORA,35048689,613.0,595.0,0.0,0.0,0.0,0.0,1.0,1.0,1.0,0.0,0.0,598.0,676.0,1274.0,0.0,0.0,2,1,ANTONIO GANDINI,690,RUA,ITAQUERA,8215460,-23.5383277,-46.440229,EM-3ª série,"265,8",267.8,262.8,530.6
405,CICERO CANUTO DE LIMA PASTOR,35048719,468.0,268.0,22.0,0.0,18.0,1.0,1.0,1.0,0.0,1.0,1.0,847.0,800.0,1335.0,312.0,0.0,2,1,CIPOTUBA,37,RUA,MORRO DO INDIO,5873190,-23.688263,-46.777831,EM-3ª série,"262,2",256.7,255.1,511.79999999999995
406,ARISTON DE OLIVEIRA PROFESSOR TENENTE,35048720,681.0,778.0,18.0,1.0,26.0,0.0,1.0,1.0,0.0,0.0,0.0,772.0,831.0,1206.0,397.0,1.0,2,1,JOAO DA CRUZ E SOUSA,444,RUA,JARDIM DAS ROSAS ZONA SUL,5893000,-23.6577621,-46.7897576,EM-3ª série,"262,5",257.0,258.7,515.7
407,SOICHI MABE,35048744,957.0,886.0,4.0,10.0,20.0,1.0,1.0,1.0,0.0,0.0,1.0,966.0,1011.0,1335.0,642.0,8.0,2,1,AMARO GOMES,24,RUA,JARDIM ARACATI,4949120,-23.7201001,-46.7702351,EM-3ª série,"253,3",253.9,244.9,498.8
408,ELIZABETH APARECIDA SIMOES MESQUITA PROFESSORA,35072503,366.0,249.0,0.0,0.0,0.0,0.0,1.0,1.0,1.0,1.0,0.0,311.0,338.0,649.0,0.0,229.0,2,1,JOSE DA NATIVIDADE SALDANHA,SN,AVENIDA,VILA PENTEADO,2844130,-23.47065,-46.68578,EM-3ª série,"257,9",261.1,246.3,507.40000000000003
409,WANDER TAFFO MUSICO,35121484,222.0,154.0,18.0,0.0,0.0,1.0,1.0,1.0,1.0,1.0,0.0,192.0,195.0,387.0,0.0,127.0,2,1,MANGUALDE,427,RUA,PARQUE SANTO ANTONIO,5851260,-23.6656048,-46.7608049,EM-3ª série,"279,1",239.4,220.1,459.5
410,THAYANE LUZIMARA COSTA VALCACER PROFESSORA,35130321,296.0,254.0,17.0,14.0,0.0,1.0,1.0,1.0,1.0,0.0,1.0,435.0,442.0,720.0,157.0,0.0,2,1,FRIEDRICH VON VOITH,1790,RUA,JARDIM SAO JOAO JARAGUA,2995000,-23.4363629,-46.7395743,EM-3ª série,"299,3",268.9,244.2,513.0999999999999
411,REPUBLICA DA COLOMBIA,35130333,211.0,456.0,18.0,0.0,0.0,1.0,1.0,1.0,0.0,0.0,0.0,357.0,377.0,468.0,266.0,0.0,2,1,RENDEIRA,926,RUA,JARDIM VISTA ALEGRE,2878160,-23.4538025,-46.6857181,EM-3ª série,"248,2",234.7,241.9,476.6
412,JARDIM CAPELA IV,35191224,511.0,530.0,12.0,0.0,0.0,1.0,1.0,1.0,1.0,0.0,0.0,635.0,679.0,1314.0,0.0,11.0,2,1,BARONESA,100,ESTRADA,PARQUE BOLOGNE,4941175,-23.7185865,-46.782174,EM-3ª série,"273,5",263.8,255.4,519.2
413,EUDORO VILLELA,35191905,269.0,564.0,27.0,0.0,72.0,1.0,1.0,0.0,0.0,0.0,1.0,449.0,479.0,620.0,308.0,0.0,2,1,GUAVIRUTUBA,600,ESTRADA,VILA BOM JARDIM,4937000,-23.685314,-46.7645334,EM-3ª série,"279,5",266.5,258.7,525.2
414,MARILSA GARBOSSA FRANCISCO PROFESSORA,35191917,251.0,163.0,27.0,0.0,0.0,1.0,1.0,1.0,1.0,1.0,0.0,359.0,428.0,787.0,0.0,13.0,2,1,PAULO LEMORE,,RUA,JARDIM SAO LUIS,5844190,-23.66160693,-46.74156678,EM-3ª série,"255,6",269.2,259.4,528.5999999999999
415,RECANTO VERDE SOL,35267983,447.0,438.0,12.0,34.0,10.0,1.0,1.0,1.0,0.0,1.0,1.0,742.0,755.0,1006.0,491.0,0.0,2,1,PEDRO RAMAZZANI,73,RUA,RECANTO VERDE DO SOL,8381800,-23.6137722,-46.4197669,EM-3ª série,"264,6",262.9,253.6,516.5
416,MARIA HELENA GONCALVES DE ARRUDA PROFESSORA,35269359,250.0,375.0,14.0,0.0,0.0,1.0,1.0,1.0,0.0,0.0,0.0,372.0,426.0,596.0,202.0,0.0,2,1,CANTIDIO SAMPAIO DEPUTADO,4678,AVENIDA,VILA SOUZA,2860001,-23.4474303,-46.7026132,EM-3ª série,250,256.6,249.5,506.1
417,FERNANDO GASPARIAN,35269384,525.0,583.0,16.0,0.0,0.0,0.0,1.0,1.0,1.0,0.0,1.0,643.0,707.0,990.0,360.0,1.0,2,1,LUSTER,216,RUA,JARDIM UMUARAMA,5783150,-23.6466402,-46.7703762,EM-3ª série,"256,9",254.2,252.5,506.7
418,PAULO KOBAYASHI,35283903,438.0,304.0,10.0,0.0,0.0,0.0,1.0,0.0,1.0,0.0,1.0,391.0,383.0,774.0,0.0,0.0,2,1,RUA GURGUEIA,SN,RUA,UNIAO DE VILA NOVA,8072132,-23.484266,-46.4581015,EM-3ª série,"254,3",261.8,261.3,523.1
419,LUIS AMBRA DESEMBARGADOR,35284300,564.0,586.0,7.0,0.0,0.0,0.0,1.0,1.0,1.0,0.0,0.0,642.0,692.0,844.0,490.0,0.0,2,1,ALTOLANDIA,110,RUA,PARQUE DOM JOAO NERI,8151280,-23.5213013,-46.4048635,EM-3ª série,"249,4",248.5,250.9,499.4
420,BELIZE,35284324,290.0,371.0,14.0,0.0,0.0,1.0,1.0,0.0,0.0,1.0,0.0,593.0,624.0,852.0,365.0,0.0,2,1,CAROLINA VOVO,SN,ESTRADA,GUAIANAZES,8473370,-23.59469731,-46.41932927,EM-3ª série,"243,9",252.8,246.1,498.9
421,OSCAR DIAS CORREIA MINISTRO,35290543,314.0,360.0,16.0,0.0,0.0,1.0,1.0,1.0,1.0,0.0,0.0,606.0,622.0,917.0,311.0,0.0,2,1,ALEXIOS JAFET,1800,AVENIDA,JARDIM IPANEMA ZONA OESTE,5187010,-23.4399404,-46.7504377,EM-3ª série,"248,5",270.0,258.3,528.3
422,REPUBLICA DO PANAMA,35297501,381.0,957.0,18.0,0.0,0.0,1.0,1.0,1.0,1.0,0.0,0.0,798.0,763.0,1053.0,508.0,0.0,2,1,PIEMONTE DA BORBOREMA,75,RUA,VILA NOVA DAS BELEZAS,5777120,-23.6411595,-46.7462306,EM-3ª série,264,271.4,266.9,538.3
